name,zip_code,latitude,longitude,rating,review_count,category,has_online_services,distance,total_pop,median_income,bachelors_degrees,median_age,pct_bachelors
The Cliff Spa,84092,40.58260659252161,-111.65421125896988,3.6,55,spas,0,119131.96226783925,28162.0,153333.0,5821.0,42.3,20.669696754491866
The Quarry,84604,40.2649049,-111.6697406,4.3,22,rock_climbing,0,118140.5066131371,43749.0,74522.0,6599.0,23.6,15.083773343390705
Tougher Personal Training,84501,39.59970612697956,-110.80967,5.0,19,healthtrainers,0,94430.56474803684,13002.0,53256.0,1069.0,37.1,8.221812028918627
Eventful Yoga,84098,40.73387,-111.52816,5.0,6,yoga,0,115749.75850863617,20311.0,171151.0,5789.0,41.9,28.50179705578258
3B Yoga,84604,40.2985456,-111.6580047020616,5.0,13,yoga,0,116876.12505462872,43749.0,74522.0,6599.0,23.6,15.083773343390705
Anytime Fitness,84651,40.0322371389139,-111.735760121641,4.9,8,gyms,0,128420.49710967824,29502.0,94152.0,3682.0,29.7,12.480509795946038
XD Fit,84062,40.35451,-111.735406,5.0,8,intervaltraininggyms,0,123271.23044918072,47489.0,101584.0,7843.0,27.8,16.515403567141863
EXL Fitness & Performance,84057,40.3272661,-111.7084065,5.0,9,bootcamps,0,121021.98429873356,37620.0,80184.0,6026.0,28.3,16.018075491759703
The Shop,84060,40.65032,-111.50286,4.8,25,yoga,0,108736.24766300221,8575.0,132412.0,2597.0,47.7,30.28571428571429
Yoga Mastery Institute,84098,40.750914434168955,-111.572402,5.0,20,yoga,0,118055.80010715083,20311.0,171151.0,5789.0,41.9,28.50179705578258
Upgrade Labs,84098,40.7204095287276,-111.5399872349182,4.4,7,cryotherapy,0,114272.19492350459,20311.0,171151.0,5789.0,41.9,28.50179705578258
Stillwell Spa,84092,40.591248,-111.632414,4.2,16,massage,0,117543.80450785885,28162.0,153333.0,5821.0,42.3,20.669696754491866
Now and Zen Massage,84060,40.663453,-111.493592,4.2,54,massage,0,108446.65786561379,8575.0,132412.0,2597.0,47.7,30.28571428571429
CrossFit Utah Valley,84042,40.33652095593725,-111.750409,5.0,5,intervaltraininggyms,0,124559.95765323943,11570.0,104840.0,1935.0,30.1,16.72428694900605
Passion Fitness,84057,40.2901056,-111.6980166,5.0,6,healthtrainers,0,120317.04706683855,37620.0,80184.0,6026.0,28.3,16.018075491759703
Silver Mountain Sports Club & Spa,84060,40.66319,-111.49361,3.6,69,gyms,0,108446.65786561379,8575.0,132412.0,2597.0,47.7,30.28571428571429
Salt Pilates,84098,40.720173,-111.542444,4.7,26,pilates,0,114457.35073675716,20311.0,171151.0,5789.0,41.9,28.50179705578258
CrossFit MinersTown Strength & Conditioning,84060,40.66077,-111.506127,5.0,10,intervaltraininggyms,0,109355.57390572663,8575.0,132412.0,2597.0,47.7,30.28571428571429
Park City Jiu Jitsu,84098,40.7233382,-111.4869298,4.7,14,brazilianjiujitsu,0,110230.18711839692,20311.0,171151.0,5789.0,41.9,28.50179705578258
Athletic Republic,84098,40.7507292,-111.5715636,5.0,7,healthtrainers,0,117982.60340664862,20311.0,171151.0,5789.0,41.9,28.50179705578258
Park City Yoga Adventures,84049,40.632379,-111.441694,4.9,19,hiking,0,103211.44790889513,6926.0,140500.0,1625.0,38.0,23.462315911059775
Good Movement Studio,84060,40.6858999,-111.54049,5.0,6,pilates,0,112990.94037358067,8575.0,132412.0,2597.0,47.7,30.28571428571429
Pilates By Alison,84060,40.6576781,-111.5067257,5.0,6,pilates,0,109296.28924724317,8575.0,132412.0,2597.0,47.7,30.28571428571429
Mountain West Pilates,84062,40.354262699332565,-111.7398412,5.0,11,pilates,0,123647.07151645955,47489.0,101584.0,7843.0,27.8,16.515403567141863
The Yoga Underground,84606,40.239807,-111.642414,4.2,18,yoga,0,116087.37280650958,35931.0,52110.0,4057.0,23.2,11.291085692020818
Karve Barre Studio,84042,40.34755101452691,-111.72770207388731,5.0,9,barreclasses,0,122621.20729827222,11570.0,104840.0,1935.0,30.1,16.72428694900605
InBalance Wellness and Yoga,84057,40.313432,-111.707028,5.0,10,yoga,0,120953.79735952658,37620.0,80184.0,6026.0,28.3,16.018075491759703
Put It Up CrossFit,84058,40.264743,-111.709133,5.0,8,healthtrainers,0,121458.05628259381,34706.0,71474.0,5105.0,24.9,14.70927217195874
Wasatch Combat Sports,84057,40.31515,-111.72959,5.0,7,boxing,0,122850.98333554818,37620.0,80184.0,6026.0,28.3,16.018075491759703
Rxfit Gym - Springville,84663,40.15639309956496,-111.65502200555726,5.0,5,healthtrainers,0,118516.50380914504,35889.0,88919.0,5339.0,28.1,14.876424531193402
Embody Wellness Center,84058,40.27541,-111.6887056,4.9,9,massage_therapy,0,119637.73967597594,34706.0,71474.0,5105.0,24.9,14.70927217195874
Peak 45 - Park City,84098,40.72536478937925,-111.5426089918972,5.0,7,pilates,0,114676.41677426963,20311.0,171151.0,5789.0,41.9,28.50179705578258
Everly Grace Whole Beauty,84098,40.71246,-111.54764,5.0,5,yoga,0,114564.36699076847,20311.0,171151.0,5789.0,41.9,28.50179705578258
Warriors Warehouse Gym,84078,40.4477674,-109.5491575,4.4,7,healthmarkets,0,62979.72337561588,30669.0,71230.0,2365.0,32.0,7.711369787081418
The Yoga Shala,84057,40.312694,-111.702358,5.0,7,yoga,0,120561.27328348692,37620.0,80184.0,6026.0,28.3,16.018075491759703
Bodhi Yoga,84604,40.25934374259503,-111.66441493536357,5.0,7,yoga,0,117729.28510044544,43749.0,74522.0,6599.0,23.6,15.083773343390705
Peak State Fit,84115,40.7224327,-111.8749404,5.0,4,bike_repair_maintenance,0,141075.02475885564,28411.0,61505.0,4155.0,33.9,14.62461722572243
The Dojo - Perry's Martial Arts,84057,40.312620008353065,-111.7021928786671,5.0,6,karate,0,120547.60219071282,37620.0,80184.0,6026.0,28.3,16.018075491759703
Burn Boot Camp - Orem,84097,40.27411,-111.68339,5.0,4,bootcamps,0,119200.18706248846,22024.0,97034.0,3928.0,29.5,17.835088993824918
BJJ Revolution Utah,84060,40.66319,-111.49361,5.0,6,brazilianjiujitsu,0,108446.65786561379,8575.0,132412.0,2597.0,47.7,30.28571428571429
Gracie Barra Park City,84098,40.74969,-111.57218,5.0,4,brazilianjiujitsu,0,117988.20307684346,20311.0,171151.0,5789.0,41.9,28.50179705578258
Pure Barre,84098,40.7232268,-111.5420325,4.4,14,barreclasses,0,114545.43006467099,20311.0,171151.0,5789.0,41.9,28.50179705578258
Orem Fitness Center,84058,40.2948629864314,-111.709491377236,3.6,14,gyms,0,121258.37915091634,34706.0,71474.0,5105.0,24.9,14.70927217195874
Mountain Elite Massage and The Sanctuary,84032,40.5069388,-111.4139413,5.0,4,nutritionists,0,97573.77669862953,25328.0,101365.0,4346.0,33.0,17.158875552747947
PC Yoga Collective,84098,40.720105,-111.538771,4.0,4,yoga,0,114165.94562445603,20311.0,171151.0,5789.0,41.9,28.50179705578258
Embodied Patience,84124,40.69806,-111.85405,5.0,2,theater,0,132724.73329455912,22992.0,117500.0,5135.0,39.8,22.333855254001392
The Beau Collective,84098,40.72803,-111.5514,5.0,2,cardioclasses,0,115444.58051023699,20311.0,171151.0,5789.0,41.9,28.50179705578258
Planet Fitness,84601,40.22006448776538,-111.65685576774852,4.0,8,gyms,0,117564.03431702143,32871.0,64758.0,4258.0,25.7,12.953667366371574
Strive Training and Fitness,84057,40.289465,-111.693714,5.0,2,healthtrainers,0,119957.04068589666,37620.0,80184.0,6026.0,28.3,16.018075491759703
Utah Yoga and Wellness,84049,40.5121772,-111.4743545,5.0,3,yoga,0,102704.23756769956,6926.0,140500.0,1625.0,38.0,23.462315911059775
F45 Training Park City,84098,40.72143,-111.53902,4.8,5,healthtrainers,0,114236.90300789349,20311.0,171151.0,5789.0,41.9,28.50179705578258
Rxfit Gym - Provo,84601,40.239463,-111.6617671,5.0,3,healthtrainers,0,117724.47799058829,32871.0,64758.0,4258.0,25.7,12.953667366371574
Sports Performance Academy,84660,40.1221511,-111.6375426,4.8,4,gyms,0,117820.47476612481,47004.0,98398.0,6675.0,27.4,14.200919070717385
Postura,84663,40.1836054,-111.6096652,5.0,1,healthtrainers,0,114191.20799532691,35889.0,88919.0,5339.0,28.1,14.876424531193402
Omega Martial Arts,84663,40.1783416,-111.6107859,5.0,3,martialarts,0,114425.8587348203,35889.0,88919.0,5339.0,28.1,14.876424531193402
Shauntea,84105,40.7349548339844,-111.865287780762,5.0,3,yoga,0,140492.70824922697,22963.0,94145.0,5510.0,35.6,23.995122588511954
Montage Deer Valley Fitness Center,84060,40.616089547636,-111.511281430721,5.0,2,gyms,0,108320.04919377783,8575.0,132412.0,2597.0,47.7,30.28571428571429
Total Glow Pilates And Yoga,84097,40.281896646379806,-111.6864749,5.0,2,yoga,0,119398.08844020627,22024.0,97034.0,3928.0,29.5,17.835088993824918
THE BOX,84062,40.3543,-111.73993,5.0,1,gyms,0,123653.42382981385,47489.0,101584.0,7843.0,27.8,16.515403567141863
Crossfit Park City,84098,40.74787,-111.56435,4.6,7,intervaltraininggyms,0,117300.3200364396,20311.0,171151.0,5789.0,41.9,28.50179705578258
Infinity BJJ Utah,84664,40.137209,-111.597507,5.0,3,brazilianjiujitsu,0,114147.1417689548,12340.0,127860.0,2134.0,31.4,17.293354943273904
Bobby Lawrence Karate,84097,40.27912,-111.68747,5.0,1,martialarts,0,119507.40853643492,22024.0,97034.0,3928.0,29.5,17.835088993824918
Hermes Crossfit,84660,40.135825,-111.659219,5.0,4,gyms,0,119311.24182240735,47004.0,98398.0,6675.0,27.4,14.200919070717385
Fit To Recover,84115,40.74079100546099,-111.88931566012856,5.0,2,gyms,0,142831.86514043415,28411.0,61505.0,4155.0,33.9,14.62461722572243
Progressive Defense Tactics,84034,40.4791360269672,-111.46463152352624,5.0,1,selfdefenseclasses,0,101317.30623282866,,,,,
Bhakti House,84062,40.35693,-111.71133,5.0,2,yoga,0,121230.83898884228,47489.0,101584.0,7843.0,27.8,16.515403567141863
Raptor Martial Arts & Self Defense,84501,39.56165154903027,-110.81786581379656,5.0,1,taekwondo,0,98498.21208232522,13002.0,53256.0,1069.0,37.1,8.221812028918627
Orangetheory Fitness,84097,40.2722,-111.68271,3.6,28,bootcamps,0,119157.33787484054,22024.0,97034.0,3928.0,29.5,17.835088993824918
Orangetheory Fitness,84098,40.72045,-111.54169,3.8,25,bootcamps,0,114445.28604494758,20311.0,171151.0,5789.0,41.9,28.50179705578258
the balance babe,84107,40.6778263,-111.8736499,5.0,1,reiki,0,139621.80779630173,37548.0,73469.0,6241.0,35.0,16.621391285820817
Leantrition,84604,40.2761917,-111.6510925,5.0,1,weightlosscenters,0,116438.67539028946,43749.0,74522.0,6599.0,23.6,15.083773343390705
Royal West Martial Arts,84042,40.333932,-111.712997,4.5,2,martialarts,0,121394.5656141359,11570.0,104840.0,1935.0,30.1,16.72428694900605
F45 Training - Lindon,84042,40.3422,-111.72283,5.0,2,healthtrainers,0,122213.88161171913,11570.0,104840.0,1935.0,30.1,16.72428694900605
Board30 Park City,84060,40.64595,-111.4964318,5.0,2,intervaltraininggyms,0,108070.16840175464,8575.0,132412.0,2597.0,47.7,30.28571428571429
CrossFit Vitruvius,84604,40.274678,-111.652139,5.0,1,intervaltraininggyms,0,116550.29426062132,43749.0,74522.0,6599.0,23.6,15.083773343390705
Studio Rise,84060,40.662591,-111.498224,5.0,2,pilates,0,108789.62348977178,8575.0,132412.0,2597.0,47.7,30.28571428571429
Innsaei,84057,40.2988669,-111.7025014,5.0,1,yoga,0,120642.72965565805,37620.0,80184.0,6026.0,28.3,16.018075491759703
Shamanic Twist Institute Wellness Center & Studio,84036,40.640695,-111.285711,5.0,1,yoga,0,91077.70846653833,8781.0,122679.0,1681.0,38.2,19.143605511900695
The Little Gym of Orem,84058,40.29809,-111.699473,4.7,3,martialarts,0,120390.7239209128,34706.0,71474.0,5105.0,24.9,14.70927217195874
Rise Martial Arts,84660,40.1113090515137,-111.655181884766,4.5,2,martialarts,0,119562.10444397859,47004.0,98398.0,6675.0,27.4,14.200919070717385
Gogan's Garage,84032,40.483089,-111.422482,5.0,1,weightlosscenters,0,97814.66859201032,25328.0,101365.0,4346.0,33.0,17.158875552747947
Anytime Fitness,84078,40.4362121540249,-109.564488105835,5.0,2,gyms,0,61485.49000078628,30669.0,71230.0,2365.0,32.0,7.711369787081418
Mindpose Yoga,84042,40.334697,-111.713493,3.8,5,yoga,0,121435.0033554067,11570.0,104840.0,1935.0,30.1,16.72428694900605
Total Fitness,84651,40.0432801897073,-111.733299342627,3.6,5,gyms,0,127881.05358700712,29502.0,94152.0,3682.0,29.7,12.480509795946038
Utah Valley Self Defense,84042,40.34755,-111.72825,5.0,1,martialarts,0,122638.54958002032,11570.0,104840.0,1935.0,30.1,16.72428694900605
Viking CrossFit,84057,40.3124542236328,-111.704292297363,4.0,1,intervaltraininggyms,0,120726.19160311992,37620.0,80184.0,6026.0,28.3,16.018075491759703
"HOTWORX - Orem, UT - University Pkwy",84058,40.27205,-111.69001202727355,5.0,2,yoga,0,119776.29595038481,34706.0,71474.0,5105.0,24.9,14.70927217195874
Sarah Yoga & Wellness | Reiki Lehi UT | Life Coaching,84043,40.879203,-111.891747,5.0,1,yoga,0,148346.07484902392,81839.0,125598.0,15050.0,26.6,18.38976527083664
XYZ Fitness,84097,40.31298,-111.6794,5.0,2,yoga,0,118290.49802154407,22024.0,97034.0,3928.0,29.5,17.835088993824918
Utah Iron Gym,84663,40.1566804,-111.6572106,5.0,1,gyms,0,118613.29661964724,35889.0,88919.0,5339.0,28.1,14.876424531193402
Planet Fitness,84057,40.299915100000035,-111.69797347547332,3.3,41,gyms,0,120253.29118492876,37620.0,80184.0,6026.0,28.3,16.018075491759703
Ruthless Performance,84032,40.483089,-111.422482,5.0,1,gyms,0,97814.66859201032,25328.0,101365.0,4346.0,33.0,17.158875552747947
Train Insane,84057,40.29877,-111.72888,5.0,1,circuittraininggyms,0,122868.64315659985,37620.0,80184.0,6026.0,28.3,16.018075491759703
Salt City Wellness,84109,40.738916416819784,-111.8707517738652,5.0,1,c_and_mh,0,141277.26182522855,25879.0,136823.0,6598.0,35.8,25.49557556319796
Heber Fit Body Boot Camp,84032,40.4919,-111.408238,3.7,3,bootcamps,0,96806.3093904885,25328.0,101365.0,4346.0,33.0,17.158875552747947
Juliy Marie Pilates Studio,84060,40.662554,-111.499513,5.0,1,pilates,0,108888.61700914525,8575.0,132412.0,2597.0,47.7,30.28571428571429
VASA Fitness Spanish Fork,84660,40.118132141585946,-111.63980220559962,2.2,54,gyms,0,118116.60883206513,47004.0,98398.0,6675.0,27.4,14.200919070717385
Mtn Pilates,84098,40.7246322631836,-111.544631958008,5.0,1,pilates,0,115749.75850863617,20311.0,171151.0,5789.0,41.9,28.50179705578258
Cates Premium Coaching,84097,40.2692662,-111.680874,5.0,1,healthtrainers,0,119025.00595141615,22024.0,97034.0,3928.0,29.5,17.835088993824918
Vernal Fitness And Nutrition,84078,40.456,-109.52771,5.0,1,healthtrainers,0,64923.9920452083,30669.0,71230.0,2365.0,32.0,7.711369787081418
Silver Mountain Sports Club,84098,40.72485146543187,-111.54182727055225,3.0,13,gyms,0,114594.37643709707,20311.0,171151.0,5789.0,41.9,28.50179705578258
Center Stage Performing Arts Pre-School/ Kindergarten,84057,40.30778,-111.72502,5.0,1,preschools,0,122508.03695817724,37620.0,80184.0,6026.0,28.3,16.018075491759703
Summit Yoga,84060,40.6646057837043,-111.49684832097408,5.0,1,yoga,0,108748.07570381589,8575.0,132412.0,2597.0,47.7,30.28571428571429
Pur Pilates,84098,40.69995,-111.5546,5.0,1,pilates,0,114639.66306618648,20311.0,171151.0,5789.0,41.9,28.50179705578258
Anytime Fitness,84059,40.297926897130615,-111.73510384436491,3.7,6,gyms,0,123409.35283552954,16419.0,101842.0,2885.0,25.3,17.57110664474085
VASA Fitness - Provo,84606,40.2402918,-111.6421309,1.7,75,gyms,0,116057.60494448335,35931.0,52110.0,4057.0,23.2,11.291085692020818
Anytime Fitness,84032,40.49374,-111.41332,5.0,1,gyms,0,97176.34606599041,25328.0,101365.0,4346.0,33.0,17.158875552747947
Amys Martial Arts,84058,40.2953747,-111.694361,3.1,8,martialarts,0,119973.96993512938,34706.0,71474.0,5105.0,24.9,14.70927217195874
Team Justus Bobby Lawrence Karate,84057,40.3250503596976,-111.708364977312,2.8,6,karate,0,121024.93756235157,37620.0,80184.0,6026.0,28.3,16.018075491759703
Dow's Karate & Fitness,84528,39.3331436,-110.9642448536788,5.0,1,karate,0,126841.36017460593,2955.0,79489.0,130.0,37.6,4.39932318104907
Bushi Kai Action Academy,84057,40.30245,-111.69942,5.0,1,karate,0,120362.40410548272,37620.0,80184.0,6026.0,28.3,16.018075491759703
Anytime Fitness,84663,40.16147439025037,-111.5984023,3.1,10,gyms,0,113683.9534755359,35889.0,88919.0,5339.0,28.1,14.876424531193402
Rock Canyon Crossfit,84604,40.2745206,-111.652120575769,4.0,1,gyms,0,116550.06261820378,43749.0,74522.0,6599.0,23.6,15.083773343390705
Elevated CrossFit,84663,40.1678925,-111.6102129,5.0,1,bootcamps,0,114539.10478544366,35889.0,88919.0,5339.0,28.1,14.876424531193402
Park City Horse Experience,84060,40.6615028381348,-111.501174926758,4.0,1,horsebackriding,0,107976.84144816006,8575.0,132412.0,2597.0,47.7,30.28571428571429
VASA Fitness - Orem,84057,40.325794,-111.70988,2.0,31,gyms,0,121157.70815784489,37620.0,80184.0,6026.0,28.3,16.018075491759703
Soul Elevation Wellness,84010,40.8846345071759,-111.87815072531768,5.0,1,naturopathic,0,147533.94017068532,46666.0,102038.0,8801.0,32.4,18.85955513650195
The Pilates Studio Utah,84032,40.49873,-111.419725,5.0,1,pilates,0,97901.1882869682,25328.0,101365.0,4346.0,33.0,17.158875552747947
Starlyte Yoga,84660,40.1132084460961,-111.65450365353,5.0,1,yoga,0,119457.38797316859,47004.0,98398.0,6675.0,27.4,14.200919070717385
TCA Academy of Martial Arts,84066,40.29904,-109.98919,5.0,1,martialarts,0,25302.694762093444,14626.0,75383.0,991.0,32.8,6.7756050868316695
Jiu Jitsu Utah,84057,40.2971950918436,-111.700296029449,5.0,1,martialarts,0,120495.65268236981,37620.0,80184.0,6026.0,28.3,16.018075491759703
Mayweather Boxing  Fitness,84097,40.28095567562299,-111.67852,5.0,1,boxing,0,118731.99324743207,22024.0,97034.0,3928.0,29.5,17.835088993824918
Uintah Basin PiYo,84078,40.4544835,-109.5233294,5.0,1,yoga,0,65270.52053638821,30669.0,71230.0,2365.0,32.0,7.711369787081418
Premier Martial Arts,84062,40.35523,-111.73693,5.0,1,karate,0,123400.35147454099,47489.0,101584.0,7843.0,27.8,16.515403567141863
UFitness,84066,40.30314739422771,-109.97040417389076,1.0,1,gyms,0,26737.72351784167,14626.0,75383.0,991.0,32.8,6.7756050868316695
Fight or Flight Defensive Tactics & Nutrition,84057,40.2985348552465,-111.724150255322,5.0,1,martialarts,0,122488.06318619545,37620.0,80184.0,6026.0,28.3,16.018075491759703
Coach Britt Strength & Swim,84057,40.30571374424296,-111.700541,0.0,0,healthtrainers,0,120439.89853104971,37620.0,80184.0,6026.0,28.3,16.018075491759703
Own It Fitness,84606,40.20263,-111.62494,5.0,1,gyms,0,115155.8349173291,35931.0,52110.0,4057.0,23.2,11.291085692020818
Club Pilates,84098,40.7200945,-111.5392843,3.5,11,pilates,0,114204.34541602538,20311.0,171151.0,5789.0,41.9,28.50179705578258
Utah Premier Horseback Riding,84604,40.39490011421506,-111.59259627248592,0.0,0,horsebackriding,0,111265.78347340492,43749.0,74522.0,6599.0,23.6,15.083773343390705
VASA Fitness Orem - University,84097,40.3114710905209,-111.694564137136,1.9,186,gyms,0,119906.296820098,22024.0,97034.0,3928.0,29.5,17.835088993824918
Structural Stretch,84060,40.65890450594288,-111.50386517193108,0.0,0,healthtrainers,0,109109.45953289354,8575.0,132412.0,2597.0,47.7,30.28571428571429
Ray: Massage & Wellness,84117,40.6662332,-111.83119880353044,0.0,0,massage_therapy,0,135831.4247585231,24873.0,87451.0,5831.0,41.1,23.443090901781048
Brand Athletics,84606,40.20945183336251,-111.6334841910431,0.0,0,healthtrainers,0,115753.69482719411,35931.0,52110.0,4057.0,23.2,11.291085692020818
Bobby Lawrence Karate Schools,84660,40.122572891394,-111.640413480599,2.8,12,kickboxing,0,118058.71799377799,47004.0,98398.0,6675.0,27.4,14.200919070717385
Earthen Phoenix,84103,40.77395,-111.86931,0.0,0,massage_therapy,0,141088.38368805283,23796.0,81386.0,6466.0,35.3,27.17263405614389
"HOTWORX - Spanish Fork, UT",84660,40.12356456371008,-111.64675174110212,3.0,2,yoga,0,118560.86882896446,47004.0,98398.0,6675.0,27.4,14.200919070717385
Namaste Healing,84078,40.4526122527891,-109.546503942328,5.0,1,yoga,0,63297.28670626144,30669.0,71230.0,2365.0,32.0,7.711369787081418
EōS Fitness,84058,40.271844,-111.69307,1.7,26,gyms,0,120106.56885868433,34706.0,71474.0,5105.0,24.9,14.70927217195874
High Performance Strength and Conditioning,84036,40.64316,-111.27969,0.0,0,healthtrainers,0,90779.02103535431,8781.0,122679.0,1681.0,38.2,19.143605511900695
Momentum 4 Life mentoring & coaching,84037,41.028982209290426,-111.94553558980172,0.0,0,lifecoach,0,159592.30776156683,39316.0,130258.0,7756.0,34.1,19.727337470749823
EōS Fitness,84663,40.1596186,-111.6281562,3.0,1,gyms,0,116206.46946249063,35889.0,88919.0,5339.0,28.1,14.876424531193402
Harmony Fitness Studio,84097,40.27139167178456,-111.68221094502668,0.0,0,yoga,0,119122.05581314415,22024.0,97034.0,3928.0,29.5,17.835088993824918
Kilted Fitness,84015,41.1420677,-112.0332219,0.0,0,healthtrainers,0,172135.10795346386,70730.0,92634.0,7777.0,31.9,10.995334370139968
Stretch Zone,84097,40.276211,-111.685249,2.6,5,healthtrainers,0,119340.28962617632,22024.0,97034.0,3928.0,29.5,17.835088993824918
Red House Wellness,84060,40.6450282,-111.4940957000128,0.0,0,healthretreats,0,107851.32400005919,8575.0,132412.0,2597.0,47.7,30.28571428571429
Tree of Life Studios,84651,40.04266,-111.73245,0.0,0,yoga,0,127837.47339783661,29502.0,94152.0,3682.0,29.7,12.480509795946038
Lifting Leez Coaching,82930,41.26022838205181,-110.96463051922008,0.0,0,healthtrainers,0,116824.0087681125,,,,,
Grand Junction Stand Up Paddle - Highline Lake Kiosk,81524,39.2708099,-108.836389,0.0,0,paddleboarding,0,171793.2174025483,,,,,
Wellness by Kholoud,84060,40.66256198860783,-111.4995116,0.0,0,reflexology,0,108888.78634846707,8575.0,132412.0,2597.0,47.7,30.28571428571429
Moon Child Healing,84060,40.6460622,-111.4979729,0.0,0,yoga,0,108197.88771333326,8575.0,132412.0,2597.0,47.7,30.28571428571429
Underground Club,84032,40.5096016,-111.4136505,0.0,0,healthtrainers,0,97602.11043697607,25328.0,101365.0,4346.0,33.0,17.158875552747947
Beyond Sports Taekwondo,84042,40.3349201,-111.7122142,0.0,0,taekwondo,0,121326.17468853142,11570.0,104840.0,1935.0,30.1,16.72428694900605
CrossFit Utah Valley,84042,40.33653406060439,-111.750409,0.0,0,gyms,0,124559.93326734588,11570.0,104840.0,1935.0,30.1,16.72428694900605
Healing Wands,84105,40.7733075,-111.8636822,0.0,0,yoga,0,141910.8292226681,22963.0,94145.0,5510.0,35.6,23.995122588511954
Slow Flow Fusion Yoga,84032,40.50967,-111.41694,0.0,0,yoga,0,97254.08607328749,25328.0,101365.0,4346.0,33.0,17.158875552747947
"HOTWORX - Park City, UT - Kimball Junction",84098,40.72504,-111.54243,3.0,4,yoga,0,114649.31075354593,20311.0,171151.0,5789.0,41.9,28.50179705578258
801 Fitness & Strength,84058,40.2737833594161,-111.73080272419992,0.0,0,gyms,0,123212.7598292573,34706.0,71474.0,5105.0,24.9,14.70927217195874
Ceu Bdac,84501,39.6064035594463,-110.803608074784,1.0,1,gyms,0,93395.99126695856,13002.0,53256.0,1069.0,37.1,8.221812028918627
Lunar Healing Bodywork & Massage,84604,40.2631512,-111.6654160842122,0.0,0,massage_therapy,0,117776.74027260781,43749.0,74522.0,6599.0,23.6,15.083773343390705
Simply Fit Personal Training,84664,40.14528,-111.56916,0.0,0,gyms,0,111599.9907281293,12340.0,127860.0,2134.0,31.4,17.293354943273904
Achieve Fitness,84050,41.0422738,-111.6729196,0.0,0,gyms,0,140604.06781703795,12247.0,125949.0,1727.0,32.7,14.101412590838573
waterlyn taekwondo,84062,40.352598,-111.732496,0.0,0,taekwondo,0,123024.93551168073,47489.0,101584.0,7843.0,27.8,16.515403567141863
F45 Training South Orem,84097,40.27099,-111.68262,3.3,3,healthtrainers,0,119182.96414731308,22024.0,97034.0,3928.0,29.5,17.835088993824918
Studio710,84032,40.50909,-111.41264,0.0,0,poledancingclasses,0,97512.23566981412,25328.0,101365.0,4346.0,33.0,17.158875552747947
Eagle Fitness,84021,40.164968,-110.401142,0.0,0,gyms,0,22570.011660558193,3127.0,72050.0,212.0,37.2,6.779661016949152
The Barn Elite Training Facility,84664,40.1080255,-111.5983081,3.0,2,nutritionists,0,114940.34935602691,12340.0,127860.0,2134.0,31.4,17.293354943273904
Deep Half Brazilian Jiu Jitsu,84660,40.11098,-111.65438,0.0,0,brazilianjiujitsu,0,119505.46604372299,47004.0,98398.0,6675.0,27.4,14.200919070717385
Clarity Consulting,84604,40.29628,-111.639628,0.0,0,hypnosis,0,115333.28208776953,43749.0,74522.0,6599.0,23.6,15.083773343390705
Health & Fit with Emily Koshana,84060,40.64576,-111.49725,0.0,0,healthtrainers,0,108129.52855206665,8575.0,132412.0,2597.0,47.7,30.28571428571429
4Life Fitness,84057,40.30536,-111.73072,0.0,0,healthtrainers,0,122997.55507263349,37620.0,80184.0,6026.0,28.3,16.018075491759703
The Smart Fit Method,84098,40.725121,-111.546685,0.0,0,gyms,0,114986.80236907644,20311.0,171151.0,5789.0,41.9,28.50179705578258
The Iron Sanctuary,84097,40.2692662,-111.680874,0.0,0,gyms,0,119025.00595141615,22024.0,97034.0,3928.0,29.5,17.835088993824918
Pure Pilates Classical Studio,84057,40.3126754760742,-111.696990966797,0.0,0,pilates,0,120508.0225880809,37620.0,80184.0,6026.0,28.3,16.018075491759703
Bīja Yoga and Wellness,84057,40.31342525764533,-111.70703075140044,0.0,0,yoga,0,120954.05894298914,37620.0,80184.0,6026.0,28.3,16.018075491759703
Gain Fitness,84101,40.760643294764,-111.888120740662,0.0,0,healthtrainers,0,143410.9831808352,8329.0,70391.0,2053.0,33.3,24.64881738504022
Anytime Fitness,84501,39.59859815521943,-110.8235435,0.0,0,gyms,0,95108.28599891359,13002.0,53256.0,1069.0,37.1,8.221812028918627
The Mind Body Connection,82930,41.2670869,-110.966265,0.0,0,yoga,0,117554.23121124564,,,,,
Yoga Awakening With Sue,84098,40.70056,-111.54032,0.0,0,yoga,0,103965.28696346069,20311.0,171151.0,5789.0,41.9,28.50179705578258
The Core Pilates and Yoga Studio,84660,40.126374,-111.640198,0.0,0,pilates,0,117950.2280976311,47004.0,98398.0,6675.0,27.4,14.200919070717385
Fight 4 U Fitness & Krav Maga,84062,40.3602759540081,-111.750893220305,1.0,1,martialarts,0,124584.76733537359,47489.0,101584.0,7843.0,27.8,16.515403567141863
Form Fit Studio,84078,40.45351787388413,-109.54655139783203,0.0,0,pilates,0,63311.87090586927,30669.0,71230.0,2365.0,32.0,7.711369787081418
Body Alive Orem,84097,40.272823,-111.682297,0.0,0,pilates,0,119118.86563527217,22024.0,97034.0,3928.0,29.5,17.835088993824918
Curves,84058,40.28735,-111.69018,2.0,1,weightlosscenters,0,119663.48186670666,34706.0,71474.0,5105.0,24.9,14.70927217195874
The Forge Gym,84057,40.299581303990585,-111.72924743650124,0.0,0,gyms,0,122903.98554604253,37620.0,80184.0,6026.0,28.3,16.018075491759703
Master Wohlwends Martial Arts,84097,40.2659,-111.679,0.0,0,martialarts,0,118899.43149432768,22024.0,97034.0,3928.0,29.5,17.835088993824918
Wasatch Dance Center,84032,40.5066718,-111.4226591,1.0,1,martialarts,0,98285.73412401142,25328.0,101365.0,4346.0,33.0,17.158875552747947
Shakti,84094,40.5947823387766,-111.8540326,0.0,0,reiki,0,135927.0032540718,28277.0,102881.0,5258.0,35.5,18.59461753368462
Peterson Personal Training,84058,40.29713,-111.74626,0.0,0,healthtrainers,0,124591.16832920616,34706.0,71474.0,5105.0,24.9,14.70927217195874
Pierce Personal Training,84606,40.21498,-111.62758,0.0,0,healthtrainers,0,115446.36729269417,35931.0,52110.0,4057.0,23.2,11.291085692020818
Roosevelt Fitness Center,84066,40.3021786361933,-109.989795014262,0.0,0,martialarts,0,25146.093567270524,14626.0,75383.0,991.0,32.8,6.7756050868316695
Griffin Jiu Jitsu Academy,84057,40.30166,-111.69627,0.0,0,brazilianjiujitsu,0,120102.69748744702,37620.0,80184.0,6026.0,28.3,16.018075491759703
Heber City Jiu-Jitsu,84032,40.5051481,-111.414043,0.0,0,brazilianjiujitsu,0,97564.46454722152,25328.0,101365.0,4346.0,33.0,17.158875552747947
CT Johnson Personal Training,84092,40.57033,-111.75987,0.0,0,healthtrainers,0,121591.78429952869,28162.0,153333.0,5821.0,42.3,20.669696754491866
Yoga Space,84121,40.6263046264648,-111.831809997559,3.0,1,yoga,0,123506.48869937507,39204.0,114912.0,9072.0,40.1,23.140495867768596
Divine Wellness,84108,40.74576,-111.80897,0.0,0,yoga,0,132325.5493436814,21951.0,120469.0,5217.0,34.0,23.766570999043324
Body Concierge,84060,40.6431503,-111.4939728,0.0,0,yoga,0,107976.84144816006,8575.0,132412.0,2597.0,47.7,30.28571428571429
Thankful Hearts,82930,41.260228,-110.964631,0.0,0,yoga,0,116823.9918199403,,,,,
Tiger Den Dojo,84663,40.151164,-111.609717,0.0,0,karate,0,114848.44621881378,35889.0,88919.0,5339.0,28.1,14.876424531193402
Stoke Coach,84098,40.73387,-111.52816,0.0,0,healthtrainers,0,115749.75850863617,20311.0,171151.0,5789.0,41.9,28.50179705578258
Georgi Tactical Integrations,84653,40.053891,-111.672228,0.0,0,healthtrainers,0,125144.75646301224,11531.0,111420.0,1723.0,29.1,14.942329372994537
Colter Wild Wellness,84058,40.2807159423828,-111.695472717285,0.0,0,reiki,0,126772.13915789803,34706.0,71474.0,5105.0,24.9,14.70927217195874
"HOTWORX - Lindon, UT - City Park",84042,40.3426923,-111.7203137,0.0,0,yoga,0,121386.81667961467,11570.0,104840.0,1935.0,30.1,16.72428694900605
Provo ATA Martial Arts,84606,40.2216,-111.63875,0.0,0,martialarts,0,116869.38611144156,35931.0,52110.0,4057.0,23.2,11.291085692020818
Elevate Fitness,82937,41.29700082284254,-110.33710356134802,0.0,0,gyms,0,93669.76610013873,,,,,
180° Fitness,84601,40.2278137207031,-111.699020385742,0.0,0,healthtrainers,0,124269.77705555955,32871.0,64758.0,4258.0,25.7,12.953667366371574
Jim Klopman's Slackbow Balance Training Centre,84060,40.6589969,-111.5023337,0.0,0,gyms,0,104526.65274023042,8575.0,132412.0,2597.0,47.7,30.28571428571429
Alpine Fitness,84004,40.448977,-111.779317,4.3,16,gyms,0,6008.585890120166,10272.0,156786.0,2231.0,36.7,21.71923676012461
Alpine Physical Therapy,84004,40.450027,-111.777381,5.0,6,physicaltherapy,0,5813.9475331358,10272.0,156786.0,2231.0,36.7,21.71923676012461
Lifted Life Yoga Center,84004,40.44911,-111.77905,4.9,7,yoga,0,5985.317235022017,10272.0,156786.0,2231.0,36.7,21.71923676012461
Paul Tom's Academy Of Mixed Martial Arts,84003,40.3797684,-111.8134232,4.9,10,martialarts,0,11242.81960825928,55259.0,120262.0,10436.0,27.5,18.88561139361914
Momentum Indoor Climbing- Lehi,84043,40.382834,-111.834659,4.6,36,climbing,0,13413.397514033084,81839.0,125598.0,15050.0,26.6,18.38976527083664
"HOTWORX - Highland, UT - Alpine",84003,40.430906,-111.785981,5.0,3,yoga,0,7096.411930697797,55259.0,120262.0,10436.0,27.5,18.88561139361914
CrossFit Lehi,84043,40.3840187,-111.8349131,5.0,7,intervaltraininggyms,0,13350.711486011707,81839.0,125598.0,15050.0,26.6,18.38976527083664
Legends Boxing - Lehi,84043,40.389004375754205,-111.83570423679453,4.9,15,boxing,0,13079.19471317632,81839.0,125598.0,15050.0,26.6,18.38976527083664
Adam Tischler,84062,40.4154205322266,-111.764831542969,5.0,2,healthtrainers,0,6291.440155679491,47489.0,101584.0,7843.0,27.8,16.515403567141863
Crossfit hyperion,84062,40.37088,-111.76829,5.0,6,bootcamps,0,10741.892158870962,47489.0,101584.0,7843.0,27.8,16.515403567141863
The Muscle Bus,84095,40.55238,-111.90678,5.0,5,healthtrainers,0,22674.57241133594,38240.0,123082.0,7350.0,39.0,19.22071129707113
Anytime Fitness,84003,40.43385,-111.78549,3.0,23,gyms,0,6928.561097028622,55259.0,120262.0,10436.0,27.5,18.88561139361914
The Training Room,84003,40.361566,-111.78352,4.3,10,gyms,0,12278.055460009453,55259.0,120262.0,10436.0,27.5,18.88561139361914
The Ninja Playground,84043,40.384176,-111.8341285,3.9,11,challengecourses,0,13287.154115585,81839.0,125598.0,15050.0,26.6,18.38976527083664
Core Fit Studio,84043,40.384176,-111.8341285,5.0,4,gyms,0,13287.154115585,81839.0,125598.0,15050.0,26.6,18.38976527083664
Lawrence Championship Martial Arts,84003,40.3716269,-111.7810942,4.3,6,karate,0,11219.80293751022,55259.0,120262.0,10436.0,27.5,18.88561139361914
Orangetheory Fitness,84003,40.36725,-111.78541,4.4,7,bootcamps,0,11827.149592194697,55259.0,120262.0,10436.0,27.5,18.88561139361914
Work Training Studio,84062,40.354793,-111.772739,5.0,3,circuittraininggyms,0,12526.322188856851,47489.0,101584.0,7843.0,27.8,16.515403567141863
Orangetheory Fitness,84043,40.43125,-111.82546,3.5,13,bootcamps,0,10244.20607513296,81839.0,125598.0,15050.0,26.6,18.38976527083664
Bushi-Ban Martial Arts & Fitness,84003,40.3729,-111.77847,5.0,1,martialarts,0,10982.903096390744,55259.0,120262.0,10436.0,27.5,18.88561139361914
KmacFit,84003,40.36155077393842,-111.78351965058349,5.0,1,healthtrainers,0,12279.492736289536,55259.0,120262.0,10436.0,27.5,18.88561139361914
Peak Performance,84003,40.42941469042721,-111.786451,0.0,0,gyms,0,7206.03202940669,55259.0,120262.0,10436.0,27.5,18.88561139361914
VASA Fitness,84003,40.371746,-111.782269,2.0,132,gyms,0,11263.196653121602,55259.0,120262.0,10436.0,27.5,18.88561139361914
Soleil,84003,40.430838,-111.788803,0.0,0,yoga,0,7323.928309567249,55259.0,120262.0,10436.0,27.5,18.88561139361914
Crossfit Timpanogos,84043,40.3870022900045,-111.829768875463,5.0,1,intervaltraininggyms,0,12803.08502401808,81839.0,125598.0,15050.0,26.6,18.38976527083664
Booth's ATA Black Belt Academy,84003,40.3733836,-111.7866353,3.0,2,karate,0,11322.297493995602,55259.0,120262.0,10436.0,27.5,18.88561139361914
Wolves Den Jiu Jitsu,84003,40.430712,-111.7859,0.0,0,brazilianjiujitsu,0,7107.27092536649,55259.0,120262.0,10436.0,27.5,18.88561139361914
Pure Barre,84003,40.430838,-111.788803,0.0,0,barreclasses,0,7323.928309568516,55259.0,120262.0,10436.0,27.5,18.88561139361914
VASA Fitness - Lehi,84043,40.430043304978575,-111.82307222667929,2.2,11,gyms,0,10087.937484221473,81839.0,125598.0,15050.0,26.6,18.38976527083664
Vista Yoga,84004,40.45256,-111.77925,0.0,0,healthtrainers,0,5965.1367675898355,10272.0,156786.0,2231.0,36.7,21.71923676012461
Alpine Yoga,84004,40.45256,-111.77925,0.0,0,healthtrainers,0,5965.1367675898355,10272.0,156786.0,2231.0,36.7,21.71923676012461
Fitivated Fitness,84020,40.5252265930176,-111.881622314453,0.0,0,healthtrainers,0,11276.307549358586,50159.0,130680.0,10308.0,33.7,20.550648936382306
Alloy Personal Training Highland,84003,40.43105061868705,-111.7858966,0.0,0,healthtrainers,0,7089.38606500942,55259.0,120262.0,10436.0,27.5,18.88561139361914
Thetacore Academy of Combat Martial Arts,84003,40.36865,-111.78863,0.0,0,martialarts,0,11852.51824016998,55259.0,120262.0,10436.0,27.5,18.88561139361914
Elevated CrossFit,84003,40.360789,-111.78962,0.0,0,gyms,0,12625.069998227607,55259.0,120262.0,10436.0,27.5,18.88561139361914
Club Pilates,84062,40.415217141245634,-111.77110212890494,0.0,0,pilates,0,6996.097186666189,47489.0,101584.0,7843.0,27.8,16.515403567141863
Fit by Keri,84093,40.5934753,-111.8323364,0.0,0,healthtrainers,0,15479.010801343242,23998.0,132453.0,5435.0,39.8,22.647720643386947
Athletic Republic - Lehi,84043,40.38602,-111.83356,0.0,0,healthtrainers,0,13127.88313949854,81839.0,125598.0,15050.0,26.6,18.38976527083664
Curves,84062,40.3562698364258,-111.737693786621,0.0,0,gyms,0,11387.060890618961,47489.0,101584.0,7843.0,27.8,16.515403567141863
Evolve Fitness,84043,40.4297264,-111.8311475,0.0,0,gyms,0,10753.587095194876,81839.0,125598.0,15050.0,26.6,18.38976527083664
American Fork Fit Body Boot Camp,84003,40.37875,-111.81373,0.0,0,intervaltraininggyms,0,12366.468930908462,55259.0,120262.0,10436.0,27.5,18.88561139361914
Vertmaxx,84003,40.377986,-111.779551499989,0.0,0,gyms,0,11182.078235728593,55259.0,120262.0,10436.0,27.5,18.88561139361914
Body Solutions,84020,40.514372,-111.841254,0.0,0,physicaltherapy,0,12914.966357325804,50159.0,130680.0,10308.0,33.7,20.550648936382306
Larrucea Martial Arts,84062,40.354171,-111.736262,0.0,0,karate,0,11585.903209986855,47489.0,101584.0,7843.0,27.8,16.515403567141863
Wasatch School of Yoga,84062,40.374533,-111.734407,0.0,0,yoga,0,9340.634547766855,47489.0,101584.0,7843.0,27.8,16.515403567141863
Get Living Fit,84003,40.379711660338664,-111.79419093602294,0.0,0,nutritionists,0,11159.61628369881,55259.0,120262.0,10436.0,27.5,18.88561139361914
Total Health and Fitness,84062,40.3602,-111.76435,0.0,0,weightlosscenters,0,11640.343142498954,47489.0,101584.0,7843.0,27.8,16.515403567141863
The Natural Yogi,84003,40.379711660338664,-111.79419093602294,0.0,0,yoga,0,11159.61628369881,55259.0,120262.0,10436.0,27.5,18.88561139361914
Omega Martial Arts - Vineyard,84062,40.3682998359425,-111.742050981466,0.0,0,taekwondo,0,10167.190785975703,47489.0,101584.0,7843.0,27.8,16.515403567141863
Burn Boot Camp - American Fork,84003,40.37059985204499,-111.7731147737501,0.0,0,gyms,0,10965.933358637625,55259.0,120262.0,10436.0,27.5,18.88561139361914
MyDojo,84003,40.3729,-111.77847,0.0,0,karate,0,10982.903096390744,55259.0,120262.0,10436.0,27.5,18.88561139361914
Shape Up,84043,40.386344909668,-111.836372375488,0.0,0,healthtrainers,0,13294.182244292433,81839.0,125598.0,15050.0,26.6,18.38976527083664
"Paller Fitness Consulting, LLC",84020,40.4879837036133,-111.866722106934,0.0,0,healthtrainers,0,11276.307549358586,50159.0,130680.0,10308.0,33.7,20.550648936382306
Senior Fit Training,84092,40.55093,-111.83692,0.0,0,healthtrainers,0,15086.946915984438,28162.0,153333.0,5821.0,42.3,20.669696754491866
The Park Pilates - Modern Pilates Club,84062,40.35995640880869,-111.7695551,0.0,0,pilates,0,11875.238150073377,47489.0,101584.0,7843.0,27.8,16.515403567141863
Flourish Fitness and Personal Training,84092,40.550677684064034,-111.83122081883047,0.0,0,healthtrainers,0,14733.150258388003,28162.0,153333.0,5821.0,42.3,20.669696754491866
Payne Theory,84062,40.356598470637,-111.7487328,0.0,0,massage_therapy,0,11583.39243398032,47489.0,101584.0,7843.0,27.8,16.515403567141863
Syanna Wand - Personal Trainer,84092,40.5934753,-111.8323364,0.0,0,healthtrainers,0,15479.010801343242,28162.0,153333.0,5821.0,42.3,20.669696754491866
Utah Tora Jutsu,84043,40.378475245800374,-111.79539523385095,0.0,0,martialarts,0,11330.462908630989,81839.0,125598.0,15050.0,26.6,18.38976527083664
The Anatomy of Wellness,84121,40.6251747,-111.8207605,4.9,29,massage,0,16480.387731068444,39204.0,114912.0,9072.0,40.1,23.140495867768596
Mountain Yoga Sandy,84094,40.581649659582894,-111.85228631901076,4.6,66,yoga,0,13570.696406463017,28277.0,102881.0,5258.0,35.5,18.59461753368462
Big Mountain Barbell,84047,40.6121199,-111.911007,5.0,18,healthtrainers,0,19398.23930931648,36573.0,73120.0,6026.0,33.0,16.476635769556776
Absolute MMA,84088,40.6099,-111.93048,5.0,16,martialarts,0,20408.52850015259,38915.0,100532.0,5037.0,34.3,12.943595014775793
Purify Wellness Center,84062,40.35095178486144,-111.76098355998916,4.3,21,yoga,0,15104.786109907534,47489.0,101584.0,7843.0,27.8,16.515403567141863
Momentum Indoor Climbing- Sandy,84070,40.564417706467005,-111.897902,4.0,56,climbing,0,15095.254586236346,30348.0,79414.0,4774.0,32.1,15.730855410570713
Xcel Fitness,84121,40.63959945701111,-111.83302187909852,3.7,75,gyms,0,18351.57569690627,39204.0,114912.0,9072.0,40.1,23.140495867768596
Neighborhood Acupuncture and Healing Arts,84020,40.52259968172675,-111.86464929833544,4.7,12,acupuncture,0,10365.693683662028,50159.0,130680.0,10308.0,33.7,20.550648936382306
Personal Mastery Martial Arts,84093,40.5931945,-111.83078077916794,4.8,18,kickboxing,0,13612.46505202529,23998.0,132453.0,5435.0,39.8,22.647720643386947
Unified Brazilian Jiu Jitsu,84095,40.5616157,-111.9227193,5.0,13,martialarts,0,16699.454637575727,38240.0,123082.0,7350.0,39.0,19.22071129707113
Evolve Wellness Collective,84095,40.562785,-111.903721,4.5,10,yoga,0,15401.608883645398,38240.0,123082.0,7350.0,39.0,19.22071129707113
Orangetheory Fitness,84070,40.56487,-111.89016,4.7,27,bootcamps,0,14593.795706198584,30348.0,79414.0,4774.0,32.1,15.730855410570713
Westwind Karate Schools,84070,40.579011,-111.874025,4.6,10,karate,0,14584.422072816233,30348.0,79414.0,4774.0,32.1,15.730855410570713
Yoga Sunné,84121,40.623697,-111.826592,4.3,26,yoga,0,16511.196941910566,39204.0,114912.0,9072.0,40.1,23.140495867768596
Awaken Studios,84121,40.639136,-111.855087,4.5,16,barreclasses,0,19082.925267263654,39204.0,114912.0,9072.0,40.1,23.140495867768596
Collin Willis Fitness,84020,40.50364,-111.8984059,4.9,14,healthtrainers,0,12561.175403229874,50159.0,130680.0,10308.0,33.7,20.550648936382306
Mindpose,84043,40.38821141606656,-111.8446784,4.4,16,yoga,0,13483.646707988486,81839.0,125598.0,15050.0,26.6,18.38976527083664
Cradle Your Soul Yoga & Massage,84020,40.5274184,-111.8973735,4.7,22,yoga,0,13136.881930079418,50159.0,130680.0,10308.0,33.7,20.550648936382306
WestWind Karate,84047,40.619881,-111.899476,4.6,11,karate,0,19385.7177622643,36573.0,73120.0,6026.0,33.0,16.476635769556776
StayFITT Training,84065,40.5221651,-111.9342555,5.0,8,circuittraininggyms,0,15940.743012182538,50284.0,122809.0,7706.0,35.0,15.32495425980431
TITLE Boxing Club,84121,40.609318,-111.832133,4.1,47,boxing,0,15249.41452111992,39204.0,114912.0,9072.0,40.1,23.140495867768596
Life Center Athletic Club,84094,40.572472,-111.85401,3.8,21,gyms,0,12889.758699104097,28277.0,102881.0,5258.0,35.5,18.59461753368462
Lehi Jujitsu,84043,40.3880615,-111.8501587,5.0,6,martialarts,0,13773.136018328134,81839.0,125598.0,15050.0,26.6,18.38976527083664
Crossfit Sandy,84070,40.5838102,-111.8721781,4.6,9,intervaltraininggyms,0,14857.417280295349,30348.0,79414.0,4774.0,32.1,15.730855410570713
B-Hive Yoga,84047,40.622029,-111.861061,5.0,5,yoga,0,17670.069782166167,36573.0,73120.0,6026.0,33.0,16.476635769556776
Club Pilates,84043,40.4332726738586,-111.8804735,4.6,11,pilates,0,12414.702313498601,81839.0,125598.0,15050.0,26.6,18.38976527083664
Shao Long Academy of Chinese Martial Arts,84047,40.6248341,-111.9016698,5.0,10,chinesemartialarts,0,19927.08503169851,36573.0,73120.0,6026.0,33.0,16.476635769556776
Level Up Martial Arts,84094,40.583597211252155,-111.86245996566372,4.6,7,selfdefenseclasses,0,14288.556916042871,28277.0,102881.0,5258.0,35.5,18.59461753368462
Cactus & Tropicals,84047,40.61114966137915,-111.9107344,5.0,5,gardening,0,19304.776969232895,36573.0,73120.0,6026.0,33.0,16.476635769556776
Orangetheory Fitness,84047,40.6248833713755,-111.855084531006,4.4,46,bootcamps,0,17689.6146350707,36573.0,73120.0,6026.0,33.0,16.476635769556776
Anytime Fitness,84045,40.387930241512,-111.908042427672,4.4,10,gyms,0,17198.227576590853,43369.0,123870.0,7326.0,23.2,16.89225022481496
Planet Fitness,84020,40.5288971,-111.8606257,4.5,10,healthtrainers,0,10351.127535534755,50159.0,130680.0,10308.0,33.7,20.550648936382306
South Jordan Fitness And Aquatic Center,84095,40.5541079498476,-111.939125082471,3.8,21,swimminglessons,0,17541.814243535944,38240.0,123082.0,7350.0,39.0,19.22071129707113
YogaVega,84045,40.385607,-111.914655,5.0,10,yoga,0,17794.878010869532,43369.0,123870.0,7326.0,23.2,16.89225022481496
Cottonwood Heights Community Recreation Center,84121,40.615181,-111.815983,3.3,42,gyms,0,15298.385894857935,39204.0,114912.0,9072.0,40.1,23.140495867768596
Core 7 Fitness Sandy,84094,40.5855427,-111.8629651,4.6,9,yoga,0,14482.899970924918,28277.0,102881.0,5258.0,35.5,18.59461753368462
The Grid Fitness,84042,40.33733,-111.75253,5.0,5,gyms,0,16606.89251463867,11570.0,104840.0,1935.0,30.1,16.72428694900605
Orangetheory Fitness Draper,84020,40.50095,-111.88758,4.6,22,healthtrainers,0,11612.402465571022,50159.0,130680.0,10308.0,33.7,20.550648936382306
Life Time,84095,40.551904,-111.918433,3.1,170,gyms,0,15864.396354591272,38240.0,123082.0,7350.0,39.0,19.22071129707113
Xcite MMA,84065,40.4855,-111.9123,5.0,4,boxing,0,13597.485114880703,50284.0,122809.0,7706.0,35.0,15.32495425980431
Brick Canvas Fitness,84043,40.42566,-111.88876,4.3,9,yoga,0,13408.022115463375,81839.0,125598.0,15050.0,26.6,18.38976527083664
Factum Crossfit Boxing & MMA,84070,40.599141,-111.909688,4.4,7,boxing,0,18306.668519188566,30348.0,79414.0,4774.0,32.1,15.730855410570713
Premier Fitness and Massage,84065,40.48978113897696,-111.91834463496482,5.0,2,healthtrainers,0,14109.384661712715,50284.0,122809.0,7706.0,35.0,15.32495425980431
LoDo Chair Massage,84119,40.69224,-111.94351,5.0,5,massage,0,29913.80543640361,50745.0,66616.0,3943.0,28.8,7.770223667356389
Rio Combat Team Utah,84045,40.39762448379405,-111.91924273946884,5.0,5,brazilianjiujitsu,0,17299.24683882264,43369.0,123870.0,7326.0,23.2,16.89225022481496
Jeremy Horn's Elite Performance MMA,84070,40.5854913,-111.9052229,5.0,4,boxing,0,17016.044787367366,30348.0,79414.0,4774.0,32.1,15.730855410570713
HOTWORX - Draper Peaks,84020,40.52709,-111.88562,3.8,24,yoga,0,12193.615391434998,50159.0,130680.0,10308.0,33.7,20.550648936382306
Treehouse Athletic Club,84020,40.5292015785177,-111.859260540475,3.1,32,gyms,0,10264.008481768225,50159.0,130680.0,10308.0,33.7,20.550648936382306
TruMotion Martial Arts - West Jordan,84088,40.609112,-111.949685,4.5,4,martialarts,0,21582.668194334798,38915.0,100532.0,5037.0,34.3,12.943595014775793
Gracie Barra Sandy,84070,40.58942,-111.87241,4.3,7,brazilianjiujitsu,0,15343.371328809742,30348.0,79414.0,4774.0,32.1,15.730855410570713
Freedom Fitness Boot Camp,84094,40.5815761,-111.8708899,5.0,3,bootcamps,0,14602.398584058303,28277.0,102881.0,5258.0,35.5,18.59461753368462
Massage By Miloh,84109,40.6355344,-111.9382433,5.0,2,yoga,0,22868.288505559958,25879.0,136823.0,6598.0,35.8,25.49557556319796
Black Flag Strength & Fitness,84070,40.59276196596641,-111.87329169329288,5.0,2,gyms,0,15657.752275801926,30348.0,79414.0,4774.0,32.1,15.730855410570713
Chinese Shao-lin Center,84107,40.64167120532328,-111.90027772295662,5.0,2,chinesemartialarts,0,21333.977013131476,37548.0,73469.0,6241.0,35.0,16.621391285820817
US Taekwondo,84070,40.55691782264351,-111.89017600327936,5.0,3,taekwondo,0,14086.086042194102,30348.0,79414.0,4774.0,32.1,15.730855410570713
Intermountain Pilates Training Center,84121,40.6226577758789,-111.834838867188,4.2,5,pilates,0,16676.70772998926,39204.0,114912.0,9072.0,40.1,23.140495867768596
Eclectic Wellness,84094,40.5799,-111.8665,5.0,1,massage_therapy,0,14245.12415429856,28277.0,102881.0,5258.0,35.5,18.59461753368462
VASA Fitness - Riverton,84065,40.521017,-111.940329,2.3,91,gyms,0,16412.74959511337,50284.0,122809.0,7706.0,35.0,15.32495425980431
The HITFIT Gym,84065,40.5228318,-111.9530759,4.0,8,intervaltraininggyms,0,17507.68815499125,50284.0,122809.0,7706.0,35.0,15.32495425980431
Pilates Revolution & Fitness,84020,40.4975145,-111.8848551,5.0,3,pilates,0,11312.94335614151,50159.0,130680.0,10308.0,33.7,20.550648936382306
Total Health and Fitness,84020,40.52724869054448,-111.869541,4.0,5,weightlosscenters,0,10951.09039382193,50159.0,130680.0,10308.0,33.7,20.550648936382306
F45 Training Sandy,84093,40.5818446410031,-111.83077750000167,4.3,6,healthtrainers,0,12529.134636300842,23998.0,132453.0,5435.0,39.8,22.647720643386947
Pilates for Everyone,84093,40.592001,-111.833144,5.0,4,pilates,0,13597.260299655994,23998.0,132453.0,5435.0,39.8,22.647720643386947
Momentum Indoor Climbing,84047,40.620367144479744,-111.8607775031854,4.5,2,climbing,0,17503.76625569382,36573.0,73120.0,6026.0,33.0,16.476635769556776
The Exercise Coach - Sandy,84070,40.57455323251105,-111.87290455613866,5.0,3,healthtrainers,0,14171.110995504008,30348.0,79414.0,4774.0,32.1,15.730855410570713
Tiger Rock Martial Arts,84093,40.5820216,-111.8318514,5.0,3,taekwondo,0,12594.431249829204,23998.0,132453.0,5435.0,39.8,22.647720643386947
Hidden Valley Mixed Martial Arts,84070,40.57209,-111.87291,5.0,1,martialarts,0,13977.184596231613,30348.0,79414.0,4774.0,32.1,15.730855410570713
Club Pilates,84020,40.54282615654125,-111.8906164055052,5.0,2,pilates,0,13314.405575647535,50159.0,130680.0,10308.0,33.7,20.550648936382306
F45 Training Traverse Mountain,84043,40.432734,-111.880366,4.4,7,healthtrainers,0,12435.824372297488,81839.0,125598.0,15050.0,26.6,18.38976527083664
Monk Wise Martial Arts Academy,84088,40.5955819,-111.93892,3.8,4,martialarts,0,19937.675021496958,38915.0,100532.0,5037.0,34.3,12.943595014775793
Pilates By Robyn,84093,40.59198,-111.83296,5.0,3,pilates,0,14685.1782373771,23998.0,132453.0,5435.0,39.8,22.647720643386947
Bobby Lawrence Karate of Draper,84020,40.527674052254,-111.870727,4.3,6,karate,0,11061.913681739505,50159.0,130680.0,10308.0,33.7,20.550648936382306
Dialed In Fitness,84093,40.5935856,-111.832256,5.0,2,gyms,0,14685.1782373771,23998.0,132453.0,5435.0,39.8,22.647720643386947
Core 7 Fitness,84095,40.56034763744768,-111.93919435682145,5.0,4,yoga,0,17854.26722690557,38240.0,123082.0,7350.0,39.0,19.22071129707113
CrossFit Draper,84020,40.51422820063761,-111.8871899250688,5.0,2,healthtrainers,0,11872.447111913449,50159.0,130680.0,10308.0,33.7,20.550648936382306
The Elite Training Facility,84020,40.5262839049101,-111.878039315343,5.0,3,healthtrainers,0,11568.048076126419,50159.0,130680.0,10308.0,33.7,20.550648936382306
Sierra MMA,84094,40.6075174,-111.8532449,5.0,2,muaythai,0,16052.900761029423,28277.0,102881.0,5258.0,35.5,18.59461753368462
Impact Martial Arts,84095,40.58737765595745,-111.922245173308,5.0,2,martialarts,0,18265.46274591772,38240.0,123082.0,7350.0,39.0,19.22071129707113
Bobby Lawrence Karate,84045,40.385243,-111.914732,5.0,3,karate,0,17825.526343415022,43369.0,123870.0,7326.0,23.2,16.89225022481496
Bobby Lawrence Karate,84094,40.5818581,-111.8532317,4.1,7,karate,0,13638.938210524047,28277.0,102881.0,5258.0,35.5,18.59461753368462
HOTWORX - West Jordan,84088,40.59033,-111.93919,4.8,4,yoga,0,19607.17451056948,38915.0,100532.0,5037.0,34.3,12.943595014775793
Ute CrossFit East Draper,84020,40.5270483,-111.8633916,5.0,4,gyms,0,10451.315387697887,50159.0,130680.0,10308.0,33.7,20.550648936382306
Valkyrie Training,84045,40.33843364259063,-111.91176170710123,5.0,2,healthcoach,0,21340.46436393684,43369.0,123870.0,7326.0,23.2,16.89225022481496
Koko Fit Club,84093,40.5803506,-111.8389302,5.0,3,gyms,0,12774.56245045596,23998.0,132453.0,5435.0,39.8,22.647720643386947
Club Pilates,84093,40.581997,-111.831427,4.6,5,yoga,0,12572.836206583153,23998.0,132453.0,5435.0,39.8,22.647720643386947
Leverage Fitness Solutions,84121,40.6088387,-111.8322924,5.0,2,healthtrainers,0,15207.791233402128,39204.0,114912.0,9072.0,40.1,23.140495867768596
Atomic Pilates & Chiropractic,84065,40.49699263965521,-111.93821608220767,5.0,2,chiropractors,0,15826.821064064965,50284.0,122809.0,7706.0,35.0,15.32495425980431
Echo Martial Arts,84121,40.6388341,-111.8332668,5.0,1,karate,0,18280.526765116963,39204.0,114912.0,9072.0,40.1,23.140495867768596
Hell’s Gate Gym,84107,40.63708285660745,-111.89966215889405,5.0,1,gyms,0,20892.852257028666,37548.0,73469.0,6241.0,35.0,16.621391285820817
EōS Fitness,84094,40.56293398560531,-111.85101542111484,2.6,58,gyms,0,11946.070765571249,28277.0,102881.0,5258.0,35.5,18.59461753368462
IMA Utah Karate,84121,40.62366,-111.82603,5.0,1,karate,0,16485.61766234058,39204.0,114912.0,9072.0,40.1,23.140495867768596
Flying Tiger Self Defense,84088,40.586067,-111.937971,5.0,1,karate,0,19248.14376578449,38915.0,100532.0,5037.0,34.3,12.943595014775793
Pure workout,84107,40.6385,-111.8983,4.2,5,healthtrainers,0,20950.899724027877,37548.0,73469.0,6241.0,35.0,16.621391285820817
Bailie's Gymnastics,84020,40.513137,-111.89373,3.5,10,gyms,0,12398.512171884526,50159.0,130680.0,10308.0,33.7,20.550648936382306
Aerobatics Gym,84020,40.49661,-111.89011,5.0,2,gyms,0,13003.141445766078,50159.0,130680.0,10308.0,33.7,20.550648936382306
Master Seung's World Class TaeKwonDo,84020,40.529345390331,-111.85532267055424,5.0,1,taekwondo,0,9977.443386334839,50159.0,130680.0,10308.0,33.7,20.550648936382306
Fitness Together,84121,40.62399,-111.82619,5.0,4,healthtrainers,0,16526.81614317533,39204.0,114912.0,9072.0,40.1,23.140495867768596
Crossfit OUR,84020,40.5036326,-111.8969617,4.5,2,intervaltraininggyms,0,12440.340738959865,50159.0,130680.0,10308.0,33.7,20.550648936382306
Club Pilates,84045,40.38364457451659,-111.9161195459158,4.0,4,pilates,0,18029.12514754344,43369.0,123870.0,7326.0,23.2,16.89225022481496
Curves,84121,40.624101,-111.838592,5.0,1,healthtrainers,0,16965.36325693393,39204.0,114912.0,9072.0,40.1,23.140495867768596
Tekton Fitness,84107,40.6426408,-111.8998536,5.0,1,gyms,0,21400.16509629732,37548.0,73469.0,6241.0,35.0,16.621391285820817
The Refinery Gym,84070,40.57909442005868,-111.9092947371282,3.7,3,gyms,0,16836.905233789854,30348.0,79414.0,4774.0,32.1,15.730855410570713
VASA Fitness - Sandy,84094,40.6065340043134,-111.854436538658,2.0,190,gyms,0,15918.741002855473,28277.0,102881.0,5258.0,35.5,18.59461753368462
Rage Fitness,84043,40.38759833,-111.84479,5.0,2,gyms,0,13546.959368345697,81839.0,125598.0,15050.0,26.6,18.38976527083664
Athletic Republic - West Jordan,84088,40.59043264750409,-111.939511348807,5.0,2,healthtrainers,0,19635.840070646558,38915.0,100532.0,5037.0,34.3,12.943595014775793
International Martial Arts Academy,84045,40.39929,-111.92065,5.0,1,martialarts,0,17295.18047880256,43369.0,123870.0,7326.0,23.2,16.89225022481496
VASA Fitness - Draper,84020,40.531071,-111.887938,2.2,76,gyms,0,12545.508917677878,50159.0,130680.0,10308.0,33.7,20.550648936382306
Stretch Zone,84121,40.62413,-111.83843,5.0,1,healthtrainers,0,16962.342303780668,39204.0,114912.0,9072.0,40.1,23.140495867768596
Twin Tigers Tae Kwon Do Utah,84088,40.5886421950154,-111.928898788151,5.0,1,taekwondo,0,18797.09764339832,38915.0,100532.0,5037.0,34.3,12.943595014775793
Just Relax in Motion,84088,40.596369,-111.937571,5.0,1,massage_therapy,0,19900.759495847557,38915.0,100532.0,5037.0,34.3,12.943595014775793
Freeman Physical Therapy Group,84065,40.5228233337402,-111.950706481934,5.0,1,healthtrainers,0,17307.555286058185,50284.0,122809.0,7706.0,35.0,15.32495425980431
Studio Core Pilates,84020,40.526676,-111.850765,4.0,1,pilates,0,9498.020643566324,50159.0,130680.0,10308.0,33.7,20.550648936382306
Studio IVL,84020,40.52543125654804,-111.867716209127,5.0,1,pilates,0,10727.959736445884,50159.0,130680.0,10308.0,33.7,20.550648936382306
First BJJ Riverton,84065,40.5210601,-111.9388949,5.0,1,selfdefenseclasses,0,16322.856743714037,50284.0,122809.0,7706.0,35.0,15.32495425980431
Rising Phoenix Massage and Wellness,84088,40.583523,-111.9376355,5.0,1,massage_therapy,0,19062.242013991654,38915.0,100532.0,5037.0,34.3,12.943595014775793
Anytime Fitness,84047,40.62196290450939,-111.8696694018534,2.0,8,gyms,0,18058.73836845997,36573.0,73120.0,6026.0,33.0,16.476635769556776
Rocky Mountain Judo,84047,40.62243526415942,-111.90100390982036,5.0,1,martialarts,0,19686.086888657817,36573.0,73120.0,6026.0,33.0,16.476635769556776
Planet Fitness,84107,40.63996145243196,-111.8906497958236,2.9,30,healthtrainers,0,20708.66874358565,37548.0,73469.0,6241.0,35.0,16.621391285820817
Park City Jiu Jitsu,84043,40.4067177,-111.8602222,5.0,1,brazilianjiujitsu,0,12785.090966670055,81839.0,125598.0,15050.0,26.6,18.38976527083664
Amplified Fitness,84070,40.57905,-111.90907,2.8,21,healthtrainers,0,16820.723261476676,30348.0,79414.0,4774.0,32.1,15.730855410570713
Club Pilates,84062,40.3518222402172,-111.7645772,4.0,2,pilates,0,15027.379556793478,47489.0,101584.0,7843.0,27.8,16.515403567141863
Whetwork,84121,40.610061,-111.819526,0.0,0,massage_therapy,0,14880.73954456283,39204.0,114912.0,9072.0,40.1,23.140495867768596
Freeplay,84045,40.3656999,-111.92619,5.0,1,gyms,0,19981.03062009192,43369.0,123870.0,7326.0,23.2,16.89225022481496
Unified Krav Maga,84070,40.57928,-111.90779,3.4,5,selfdefenseclasses,0,16754.721533139487,30348.0,79414.0,4774.0,32.1,15.730855410570713
Peak Fit,84043,40.3876021589536,-111.843117959797,5.0,1,gyms,0,13462.245963715377,81839.0,125598.0,15050.0,26.6,18.38976527083664
AMYS Martial Arts,84020,40.5007741930876,-111.887955628482,5.0,1,martialarts,0,11641.218314003592,50159.0,130680.0,10308.0,33.7,20.550648936382306
Pinnacle Point ATA Martial Arts,84070,40.59919,-111.87262,0.0,0,martialarts,0,16168.903675511845,30348.0,79414.0,4774.0,32.1,15.730855410570713
CRBJJ School,84020,40.5002534337339,-111.86741895704024,0.0,0,brazilianjiujitsu,0,9914.38966894218,50159.0,130680.0,10308.0,33.7,20.550648936382306
Saratoga Springs Crossfit,84045,40.3979549626394,-111.930412937109,4.0,1,intervaltraininggyms,0,18062.64391237092,43369.0,123870.0,7326.0,23.2,16.89225022481496
Temple MMA,84121,40.6092851,-111.7978445,5.0,1,martialarts,0,14147.959663528103,39204.0,114912.0,9072.0,40.1,23.140495867768596
Vasa Fitness - Saratoga Springs,84045,40.386091875502274,-111.91477663422482,2.1,91,gyms,0,17768.86469271878,43369.0,123870.0,7326.0,23.2,16.89225022481496
Fort Union Bobby Lawrence Karate,84047,40.62156,-111.86551,3.0,2,karate,0,17829.469616512077,36573.0,73120.0,6026.0,33.0,16.476635769556776
Kiwi Gym,84093,40.579675,-111.837901,0.0,0,kids_activities,0,12664.216843923332,23998.0,132453.0,5435.0,39.8,22.647720643386947
Thomas The Trainer - Personal Training,84095,40.5536948,-111.9388149,5.0,1,healthtrainers,0,17538.16343227636,38240.0,123082.0,7350.0,39.0,19.22071129707113
Cross Fit 801,84047,40.6197733,-111.8745335,5.0,1,intervaltraininggyms,0,19994.227626657717,36573.0,73120.0,6026.0,33.0,16.476635769556776
VASA Fitness West Jordan,84088,40.608668,-111.940318,1.9,104,gyms,0,20942.749819328634,38915.0,100532.0,5037.0,34.3,12.943595014775793
Sandy Capoeira,84020,40.5266817,-111.8672168,5.0,1,martialarts,0,10746.151355673313,50159.0,130680.0,10308.0,33.7,20.550648936382306
Valhalla Strength Gym,84003,40.349649,-111.783174,0.0,0,circuittraininggyms,0,15437.321917589587,55259.0,120262.0,10436.0,27.5,18.88561139361914
Revival Equine,84094,40.57182358100959,-111.86213614439605,5.0,1,massage_therapy,0,13309.41336611615,28277.0,102881.0,5258.0,35.5,18.59461753368462
Jin Kwon Tae Kwan DO,84095,40.5586078,-111.93798,3.5,2,martialarts,0,17674.861677277393,38240.0,123082.0,7350.0,39.0,19.22071129707113
Sunflower Studio,84123,40.635552,-111.938235,0.0,0,meditationcenters,0,22866.680139655466,36913.0,80079.0,5192.0,34.3,14.065505377509279
Linkfit Fitness,84020,40.4840373035546,-111.886138916016,0.0,0,healthtrainers,0,11385.444611730678,50159.0,130680.0,10308.0,33.7,20.550648936382306
Teaunas Macros,84043,40.41085756648357,-111.8733226178466,0.0,0,healthtrainers,0,13307.966052548736,81839.0,125598.0,15050.0,26.6,18.38976527083664
F45 Training Cottonwood Canyons,84121,40.60862,-111.79816,3.7,3,healthtrainers,0,14147.959663528103,39204.0,114912.0,9072.0,40.1,23.140495867768596
Karate Riverton ,84065,40.523691,-111.939062,3.7,3,selfdefenseclasses,0,16380.60966886981,50284.0,122809.0,7706.0,35.0,15.32495425980431
Train Like TC,84047,40.623908341622815,-111.8558804,0.0,0,healthtrainers,0,17629.00848086346,36573.0,73120.0,6026.0,33.0,16.476635769556776
Local Yoga,84123,40.63561,-111.93852,2.3,3,yoga,0,22890.492308242403,36913.0,80079.0,5192.0,34.3,14.065505377509279
SG Thrive Personal Training,84005,40.325135,-111.99656,0.0,0,healthtrainers,0,335.87972980390094,49116.0,105576.0,6362.0,22.0,12.953009202703802
The Ranches Fitness,84005,40.37619540000001,-111.9688377,5.0,1,gyms,0,6217.40727405854,49116.0,105576.0,6362.0,22.0,12.953009202703802
Ning Tae Kwon Do School,84005,40.37915360539517,-111.9726024294481,5.0,1,taekwondo,0,6434.500858333554,49116.0,105576.0,6362.0,22.0,12.953009202703802
Precision Martial Arts,84005,40.31509,-112.00425,0.0,0,martialarts,0,1318.218579206063,49116.0,105576.0,6362.0,22.0,12.953009202703802
Crossfit 1976,84005,40.36157,-111.97597,0.0,0,intervaltraininggyms,0,4483.523059823853,49116.0,105576.0,6362.0,22.0,12.953009202703802
Vitalogy Fitness,84043,40.38024,-111.98768,0.0,0,healthtrainers,0,13157.520543001114,81839.0,125598.0,15050.0,26.6,18.38976527083664
Mind Your Body Pilates,84005,40.3859129,-111.9993147,0.0,0,pilates,0,6962.464666331319,49116.0,105576.0,6362.0,22.0,12.953009202703802
Jaguar Sport Karate,84005,40.36157,-111.97597,0.0,0,karate,0,4484.37548440859,49116.0,105576.0,6362.0,22.0,12.953009202703802
Imperial Dragon,84045,40.3375,-111.93303,0.0,0,theater,0,5336.623579283309,43369.0,123870.0,7326.0,23.2,16.89225022481496
Fitness With Harmonie,84065,40.4744928,-111.9564892,0.0,0,nutritionists,0,17079.545077179493,50284.0,122809.0,7706.0,35.0,15.32495425980431
Jenn Bass Personal Training,84045,40.338434,-111.911762,0.0,0,healthtrainers,0,7105.49235074761,43369.0,123870.0,7326.0,23.2,16.89225022481496
American Athlete,84043,40.407794,-111.864662,0.0,0,gyms,0,14334.06328843466,81839.0,125598.0,15050.0,26.6,18.38976527083664
Muscled,84045,40.303673,-111.903716,0.0,0,healthcoach,0,7909.810978067534,43369.0,123870.0,7326.0,23.2,16.89225022481496
HYVE Fit,84043,40.387585,-111.843163,0.0,0,intervaltraininggyms,0,14584.490885035473,81839.0,125598.0,15050.0,26.6,18.38976527083664
Maxplusfitness,84045,40.314985642430294,-111.9013005,0.0,0,healthtrainers,0,7852.8642165899655,43369.0,123870.0,7326.0,23.2,16.89225022481496
Origin Fitness Syndicate,84065,40.45534460675171,-111.938819444368,0.0,0,gyms,0,15371.61858894071,50284.0,122809.0,7706.0,35.0,15.32495425980431
Lumiere Massage by Katie,84065,40.47665,-111.92636,0.0,0,massage_therapy,0,17950.545604597017,50284.0,122809.0,7706.0,35.0,15.32495425980431
"HOTWORX - Saratoga Springs, UT",84045,40.38061,-111.91597,0.0,0,yoga,0,9124.835978920546,43369.0,123870.0,7326.0,23.2,16.89225022481496
"Crystal Lyon-Yoga, HypnoBirthing & More",84043,40.38791,-111.85481,0.0,0,yoga,0,13749.604270764657,81839.0,125598.0,15050.0,26.6,18.38976527083664
Curves,84043,40.3883391745,-111.846701706,0.0,0,circuittraininggyms,0,14361.153536471717,81839.0,125598.0,15050.0,26.6,18.38976527083664
CoachAnna,,40.3472290039063,-111.908950805664,0.0,0,healthtrainers,0,7561.975556768092,,,,,
Achieve Dreams,84065,40.4758928830138,-111.9248851,0.0,0,healthtrainers,0,17910.374644097803,50284.0,122809.0,7706.0,35.0,15.32495425980431
TrainWithLisa,84045,40.387336730957,-111.91512298584,0.0,0,healthtrainers,0,10263.968319247506,43369.0,123870.0,7326.0,23.2,16.89225022481496
VS Massage & Yoga,84043,40.39023,-111.85003,0.0,0,massage_therapy,0,14254.539180186297,81839.0,125598.0,15050.0,26.6,18.38976527083664
Oakley T Training,84065,40.468687940076165,-111.9452977395035,0.0,0,healthtrainers,0,16650.55171717883,50284.0,122809.0,7706.0,35.0,15.32495425980431
Think Fit Lifestyle,84043,40.43088548335095,-111.87953295092372,0.0,0,weightlosscenters,0,15344.801193281859,81839.0,125598.0,15050.0,26.6,18.38976527083664
Advanced Fitness Solutions,84043,40.38966,-111.84747,0.0,0,gyms,0,14254.539180186297,81839.0,125598.0,15050.0,26.6,18.38976527083664
Colossal Crossfit,84043,40.39857378016356,-111.84715836805344,0.0,0,gyms,0,14932.280428226555,81839.0,125598.0,15050.0,26.6,18.38976527083664
XLR8 Fitness and Counseling,84043,40.38791,-111.85481,0.0,0,c_and_mh,0,13749.604270764657,81839.0,125598.0,15050.0,26.6,18.38976527083664
Lisen By Fitness,84045,40.367258,-111.927362,0.0,0,intervaltraininggyms,0,7411.298319589234,43369.0,123870.0,7326.0,23.2,16.89225022481496
Suvita Hot Yoga South Jordan,84095,40.5418192,-111.9807949,4.4,35,yoga,0,13623.359216611714,38240.0,123082.0,7350.0,39.0,19.22071129707113
Kearns Oquirrh Park Fitness Center,84118,40.648895,-112.007071,3.9,35,gyms,0,11965.46332465445,41969.0,87457.0,2419.0,32.0,5.763778026638709
Orangetheory Fitness,84095,40.5425,-111.9809,4.6,37,gyms,0,13601.393653503612,38240.0,123082.0,7350.0,39.0,19.22071129707113
West Wind Karate Schools,84118,40.651304,-111.983957,5.0,8,karate,0,13790.262864585427,41969.0,87457.0,2419.0,32.0,5.763778026638709
Bobby Lawrence Karate,84096,40.51168,-112.02562,4.5,13,karate,0,12462.632473615628,71115.0,117800.0,11516.0,29.2,16.193489418547426
Legends Boxing - Riverton,84096,40.523884,-111.9869487,4.4,11,boxing,0,14139.759821823489,71115.0,117800.0,11516.0,29.2,16.193489418547426
Championship Martial Arts,84088,40.58872940883538,-111.9569723185938,4.4,10,martialarts,0,14433.9074512444,38915.0,100532.0,5037.0,34.3,12.943595014775793
Santo Sattva,84106,40.70559,-111.85686,5.0,5,yoga,0,26651.962042006024,33791.0,94452.0,8406.0,35.7,24.876446391050873
L8R Lifestyle,84009,40.55933,-112.02149,4.2,5,healthtrainers,0,10032.953644304262,42091.0,130559.0,7838.0,33.2,18.621558052790384
WestWind Karate,84118,40.651245,-111.984023,5.0,5,karate,0,13782.253821171316,41969.0,87457.0,2419.0,32.0,5.763778026638709
Rumble Boxing,84096,40.50841599606977,-111.99818008703308,4.1,13,boxing,0,14404.539438660102,71115.0,117800.0,11516.0,29.2,16.193489418547426
Family Fitness Center,84119,40.70314237274775,-112.01964456447494,3.9,14,gyms,0,15316.348956770187,50745.0,66616.0,3943.0,28.8,7.770223667356389
Upgrade Labs,84096,40.50926121971804,-112.00049176538634,4.7,3,healthtrainers,0,14195.03249777317,71115.0,117800.0,11516.0,29.2,16.193489418547426
The Movement Training Day,84088,40.60903,-111.965604,5.0,3,intervaltraininggyms,0,13819.08344887898,38915.0,100532.0,5037.0,34.3,12.943595014775793
VASA Fitness - Taylorsville,84129,40.6540870666504,-111.985427856445,2.8,42,gyms,0,13856.034014366569,38128.0,94051.0,4118.0,35.3,10.8004616030214
TruMotion - South Jordan,84009,40.573745,-111.977701,4.6,5,martialarts,0,12849.778534499948,42091.0,130559.0,7838.0,33.2,18.621558052790384
F45 Training South Valley,84065,40.52299,-111.98256,4.8,5,healthtrainers,0,14598.850364463242,50284.0,122809.0,7706.0,35.0,15.32495425980431
Shaolin Arts of Taylorsville City,84118,40.653302,-111.950443,5.0,3,taichi,0,16426.06203997544,41969.0,87457.0,2419.0,32.0,5.763778026638709
Atlas Combat Sports,84065,40.52461,-111.97901,5.0,3,muaythai,0,14665.689863057518,50284.0,122809.0,7706.0,35.0,15.32495425980431
Family Tae Kwon Do,84088,40.60993,-111.96504,5.0,3,taekwondo,0,13898.786983546886,38915.0,100532.0,5037.0,34.3,12.943595014775793
Red Tree Yoga Studio,84074,40.550074,-112.296273,5.0,2,yoga,0,14989.466706507736,57470.0,102313.0,5267.0,32.3,9.164781625195754
Pursuit of Mastery- West Coast World Martial Arts,84088,40.605606,-111.99765,4.3,4,kickboxing,0,11103.159234984663,38915.0,100532.0,5037.0,34.3,12.943595014775793
BFit,84088,40.605634,-111.997608,5.0,1,gyms,0,11103.159234984663,38915.0,100532.0,5037.0,34.3,12.943595014775793
Planet Fitness,84009,40.540919,-111.985765,3.5,45,gyms,0,13300.27845684269,42091.0,130559.0,7838.0,33.2,18.621558052790384
EōS Fitness,84095,40.55932,-111.97322,2.9,18,gyms,0,13571.839055996637,38240.0,123082.0,7350.0,39.0,19.22071129707113
Higher Living Health and Wellness,84123,40.651836,-111.942142,5.0,1,massage_therapy,0,17003.22255277997,36913.0,80079.0,5192.0,34.3,14.065505377509279
Kyu Shin Ryu Karate,84095,40.55508655380868,-111.98274837633336,5.0,2,karate,0,12942.363019044638,38240.0,123082.0,7350.0,39.0,19.22071129707113
Planet Fitness,84129,40.65421,-111.9415,3.3,62,gyms,0,17167.171896723026,38128.0,94051.0,4118.0,35.3,10.8004616030214
Tony Martinez Sr Kenpo Karate,84123,40.6628596,-111.9395336,4.3,4,karate,0,17711.273567128985,36913.0,80079.0,5192.0,34.3,14.065505377509279
World Martial Art,84065,40.5092452718125,-111.977390146115,3.9,7,martialarts,0,15727.12352693589,50284.0,122809.0,7706.0,35.0,15.32495425980431
Good Vibes Dance Studio,84119,40.71825146066894,-111.9406415,5.0,1,dancestudio,0,21089.983684525705,50745.0,66616.0,3943.0,28.8,7.770223667356389
VASA Fitness - South Jordan,84095,40.5603617714957,-111.9792338872595,2.3,77,gyms,0,13050.46943634212,38240.0,123082.0,7350.0,39.0,19.22071129707113
VASA Fitness - West Valley,84119,40.6949132,-111.9741402,2.4,72,gyms,0,17255.815399434665,50745.0,66616.0,3943.0,28.8,7.770223667356389
Bobby Lawrence Karate,84120,40.714073,-112.024191,5.0,3,karate,0,16096.515330614564,50589.0,90847.0,3023.0,30.9,5.975607345470359
EōS Fitness,84084,40.62164021253717,-111.97767310318532,2.5,65,gyms,0,13083.311945119134,31389.0,94214.0,3655.0,33.9,11.644206569180286
F45 SoDa Row,84009,40.54656,-112.00183,5.0,1,gyms,0,11814.846126332977,42091.0,130559.0,7838.0,33.2,18.621558052790384
Coach Sav Fitness,84095,40.557253,-111.978903,5.0,1,healthcoach,0,13176.37958974886,38240.0,123082.0,7350.0,39.0,19.22071129707113
Black Diamond Tae Kwon DO,84096,40.51359,-112.025731,5.0,2,taekwondo,0,12307.39856779133,71115.0,117800.0,11516.0,29.2,16.193489418547426
Gracie Jiujitsu - South Jordan,84009,40.546464905562,-112.01570753202586,5.0,3,selfdefenseclasses,0,10767.669098176937,42091.0,130559.0,7838.0,33.2,18.621558052790384
Stella Fitness,84084,40.6525238551758,-111.974470741104,5.0,1,bootcamps,0,14561.782173986998,31389.0,94214.0,3655.0,33.9,11.644206569180286
Reflection Yoga and Wellness,84096,40.523841143776565,-111.98724429965613,5.0,1,yoga,0,14121.325823598365,71115.0,117800.0,11516.0,29.2,16.193489418547426
Planet Fitness,84084,40.6158391,-111.9782139,3.2,11,gyms,0,12894.650728414998,31389.0,94214.0,3655.0,33.9,11.644206569180286
Impact Strong,84095,40.5741494894597,-111.978261376421,3.4,5,gyms,0,12795.787998204663,38240.0,123082.0,7350.0,39.0,19.22071129707113
VASA Fitness - Herriman,84096,40.50967,-112.02465,2.4,14,gyms,0,12742.593837112112,71115.0,117800.0,11516.0,29.2,16.193489418547426
Peak Pursuit Performance and Rehab,84129,40.66744,-111.94372,5.0,1,physicaltherapy,0,17639.467357492696,38128.0,94051.0,4118.0,35.3,10.8004616030214
Skol CrossFit,84065,40.52158933,-111.97079933,5.0,1,gyms,0,15425.812335445713,50284.0,122809.0,7706.0,35.0,15.32495425980431
VASA Fitness - Tooele,84074,40.5353574,-112.2982785,2.7,33,gyms,0,15665.97451717681,57470.0,102313.0,5267.0,32.3,9.164781625195754
Saindae Muay Thai Academy and fitness,84104,40.7321354,-111.9886876,5.0,1,muaythai,0,19460.907388256728,24057.0,61326.0,1946.0,34.1,8.089121669368584
EōS Fitness,84123,40.650217,-111.942401,2.9,48,gyms,0,16917.165307799358,36913.0,80079.0,5192.0,34.3,14.065505377509279
Anytime Fitness,84065,40.52252,-111.95824,2.6,11,gyms,0,16311.299734236045,50284.0,122809.0,7706.0,35.0,15.32495425980431
Jin’s Martial Arts,84129,40.668740678658075,-111.95544426975864,5.0,1,chinesemartialarts,0,16836.064451496626,38128.0,94051.0,4118.0,35.3,10.8004616030214
KMR Self Defense & Fitness,84088,40.5246649,-111.9789841,3.7,3,martialarts,0,14665.689863057518,38915.0,100532.0,5037.0,34.3,12.943595014775793
Andersen Tang Soo Do Academy,84119,40.7093252,-111.9786973,5.0,1,martialarts,0,18082.04218829269,50745.0,66616.0,3943.0,28.8,7.770223667356389
Thrive Fitness,84088,40.605606,-111.99765,3.3,3,healthtrainers,0,11103.159234984663,38915.0,100532.0,5037.0,34.3,12.943595014775793
CP Fitness,84088,40.6007890358521,-111.992025487125,5.0,1,healthtrainers,0,11503.524397508545,38915.0,100532.0,5037.0,34.3,12.943595014775793
VASA Fitness - West Valley City,84120,40.6979833,-112.0260185,2.4,30,gyms,0,14535.689471611193,50589.0,90847.0,3023.0,30.9,5.975607345470359
Force Fitness,84009,40.56174427324916,-112.0413243,0.0,0,gyms,0,8068.8685907997715,42091.0,130559.0,7838.0,33.2,18.621558052790384
TruMotion Martial Arts - Taylorsville,84129,40.6689897977562,-111.957124687231,3.7,3,martialarts,0,16727.719535741016,38128.0,94051.0,4118.0,35.3,10.8004616030214
Crane School of Highland Dance,84129,40.6595916748047,-111.954124450684,5.0,1,dancestudio,0,16444.466431230623,38128.0,94051.0,4118.0,35.3,10.8004616030214
Laionebuilt Fitness,84096,40.512587,-112.02566,1.0,1,gyms,0,12391.4136519148,71115.0,117800.0,11516.0,29.2,16.193489418547426
National Academy Taekwondo,84084,40.62845,-112.00023,5.0,1,taekwondo,0,11481.748836309636,31389.0,94214.0,3655.0,33.9,11.644206569180286
Anytime Fitness,84074,40.535,-112.29949,1.8,4,gyms,0,15848.428793561752,57470.0,102313.0,5267.0,32.3,9.164781625195754
Anytime Fitness,84074,40.63006999243444,-112.29297758847396,1.4,9,gyms,0,14551.36451214398,57470.0,102313.0,5267.0,32.3,9.164781625195754
Lion Strong Fitness,84044,40.70681,-112.09864,3.0,4,healthtrainers,0,12801.941600509796,29488.0,87516.0,1819.0,32.5,6.168610960390667
Strong Life Fitness,84065,40.50906,-111.977253,2.7,3,gyms,0,15749.274685984225,50284.0,122809.0,7706.0,35.0,15.32495425980431
"HOTWORX - Taylorsville, UT - Crossroads",84123,40.6517215,-111.9421516,2.5,2,yoga,0,16997.666963015294,36913.0,80079.0,5192.0,34.3,14.065505377509279
Vaudeville Underground,84119,40.72086109875292,-111.9479114906409,0.0,0,aerialfitness,0,20832.254825620745,50745.0,66616.0,3943.0,28.8,7.770223667356389
Solum Fitness,84081,40.599922,-112.032021,0.0,0,healthtrainers,0,8132.0697686828025,52168.0,114577.0,6475.0,31.2,12.41182333997853
Graceful Serenity,84074,40.5451475,-112.2981451,0.0,0,meditationcenters,0,15175.111872276417,57470.0,102313.0,5267.0,32.3,9.164781625195754
The Academy - Farmgate,84096,40.4848882020494,-112.071681983467,1.0,1,healthtrainers,0,12875.849082275152,71115.0,117800.0,11516.0,29.2,16.193489418547426
SigmaFit Personal Training & Athletic Conditioning,84095,40.5550865538087,-111.982748376333,0.0,0,healthtrainers,0,12942.363019071192,38240.0,123082.0,7350.0,39.0,19.22071129707113
Excell FitLife,84095,40.5715496,-111.9559287,0.0,0,healthtrainers,0,14703.98802095259,38240.0,123082.0,7350.0,39.0,19.22071129707113
F45 Training SoDa Row,84009,40.546553,-112.001754,1.0,1,healthtrainers,0,11814.846126332977,42091.0,130559.0,7838.0,33.2,18.621558052790384
HOTWORX - Riverton,84096,40.50916,-111.99903,1.5,2,yoga,0,14296.17305107094,71115.0,117800.0,11516.0,29.2,16.193489418547426
Infinite Success Academy,84095,40.5605138,-111.9388049,0.0,0,preschools,0,16269.192694771678,38240.0,123082.0,7350.0,39.0,19.22071129707113
Orangetheory Fitness,84096,40.508994,-111.999024,5.0,1,gyms,0,14297.698914983728,71115.0,117800.0,11516.0,29.2,16.193489418547426
A Beautiful SurpriZe,84096,40.5114,-112.02562,0.0,0,pilates,0,12490.910427518087,71115.0,117800.0,11516.0,29.2,16.193489418547426
F45 Training South Jordan,84095,40.56335,-111.93929,3.5,2,healthtrainers,0,16244.264647614418,38240.0,123082.0,7350.0,39.0,19.22071129707113
HOTWORX - Tooele,84074,40.5501191,-112.2962478,0.0,0,yoga,0,14985.863064101508,57470.0,102313.0,5267.0,32.3,9.164781625195754
HOTWORX - South Jordan,84009,40.56212,-112.00258,1.0,1,yoga,0,11106.12329792908,42091.0,130559.0,7838.0,33.2,18.621558052790384
Club Pilates,84095,40.54186820807131,-111.97987094559473,3.7,3,pilates,0,13709.5305196984,38240.0,123082.0,7350.0,39.0,19.22071129707113
Aira Fitness,84120,40.708650378225755,-112.025794137302,0.0,0,gyms,0,15518.469317140112,50589.0,90847.0,3023.0,30.9,5.975607345470359
CrossFit Fission,84120,40.7246659,-111.9790349,0.0,0,intervaltraininggyms,0,19324.172404858895,50589.0,90847.0,3023.0,30.9,5.975607345470359
Vasa Fitness - Riverton,84065,40.5210269483258,-111.94033314316148,0.0,0,gyms,0,17724.195462722695,50284.0,122809.0,7706.0,35.0,15.32495425980431
Shape Up Outlets,84095,40.558792,-111.937918,0.0,0,gyms,0,16473.14360953088,38240.0,123082.0,7350.0,39.0,19.22071129707113
Aspire Pilates Training Center,84065,40.5223544,-111.9550445,0.0,0,pilates,0,16552.558887842806,50284.0,122809.0,7706.0,35.0,15.32495425980431
Planet Fitness,84119,40.69075684,-111.95698214,2.3,18,gyms,0,18086.136086498587,50745.0,66616.0,3943.0,28.8,7.770223667356389
Enhanced Nutrition Center,84095,40.56139659999999,-111.97593102331352,0.0,0,vitaminssupplements,0,13288.415804975752,38240.0,123082.0,7350.0,39.0,19.22071129707113
Bariatrica Premium,84118,40.66,-111.99689,0.0,0,nutritionists,0,13393.016885645584,41969.0,87457.0,2419.0,32.0,5.763778026638709
Body By Sandy,84095,40.5541000366211,-111.904388427734,0.0,0,healthtrainers,0,16259.682538725912,38240.0,123082.0,7350.0,39.0,19.22071129707113
Kae Cee Ess Integrative Health and Wellness,84118,40.65350481044646,-112.0134056417369,0.0,0,healthcoach,0,11800.011656214496,41969.0,87457.0,2419.0,32.0,5.763778026638709
Gracie Barra West Jordan,84088,40.60570824198013,-111.99787428863206,1.0,1,brazilianjiujitsu,0,11069.982773161915,38915.0,100532.0,5037.0,34.3,12.943595014775793
P4P Boxing and Fitness,84084,40.62174,-111.93962,0.0,0,gyms,0,16167.053104811868,31389.0,94214.0,3655.0,33.9,11.644206569180286
Premier Martial Arts Riverton,84096,40.52528,-111.98481,0.0,0,karate,0,14209.77235136866,71115.0,117800.0,11516.0,29.2,16.193489418547426
Flourish Wellness Consulting,84074,40.554468927465706,-112.2997349,0.0,0,c_and_mh,0,15122.829914163627,57470.0,102313.0,5267.0,32.3,9.164781625195754
David Kimmerle Plan,90028,40.560456,-111.958416,0.0,0,healthtrainers,0,14746.66821878686,,,,,
Bigger Faster Stronger,84104,40.747268,-111.962762,1.0,1,fitnessequipment,0,22132.996063680363,24057.0,61326.0,1946.0,34.1,8.089121669368584
Tasha Moors Fitness,84081,40.5993537902832,-112.046730041504,0.0,0,healthtrainers,0,7806.479946663182,52168.0,114577.0,6475.0,31.2,12.41182333997853
Gymout,84095,40.55508655380868,-111.98274837633336,0.0,0,nutritionists,0,12942.363019044638,38240.0,123082.0,7350.0,39.0,19.22071129707113
Bums Fitness,84129,40.65536499,-111.96385956,0.0,0,healthtrainers,0,15289.899915127484,38128.0,94051.0,4118.0,35.3,10.8004616030214
Corvus Jiu Jitsu,84065,40.524636,-111.978998,0.0,0,brazilianjiujitsu,0,14665.689863057518,50284.0,122809.0,7706.0,35.0,15.32495425980431
Radiance Yoga,84074,40.5725129,-112.293692,0.0,0,yoga,0,14182.001535197378,57470.0,102313.0,5267.0,32.3,9.164781625195754
Pilates Collective,84096,40.51139692636327,-112.0256068,0.0,0,pilates,0,12489.84745810624,71115.0,117800.0,11516.0,29.2,16.193489418547426
Pouha Elite Boxing Center,84119,40.70158608258333,-111.94607276495196,0.0,0,kickboxing,0,19550.18778084068,50745.0,66616.0,3943.0,28.8,7.770223667356389
Life & Laughter Coaching,84118,40.6496772766113,-112.031463623047,0.0,0,lifecoach,0,10658.226801760286,41969.0,87457.0,2419.0,32.0,5.763778026638709
Collective Healing Arts,84095,40.5641098022461,-111.938705444336,0.0,0,meditationcenters,0,16259.682538725912,38240.0,123082.0,7350.0,39.0,19.22071129707113
Jazzercise,84088,40.58795581357507,-111.93445856993934,0.0,0,intervaltraininggyms,0,16336.76818311471,38915.0,100532.0,5037.0,34.3,12.943595014775793
Pilates-Elevate Wellness Studio,84084,40.627781,-111.9341607,0.0,0,pilates,0,16811.816634336406,31389.0,94214.0,3655.0,33.9,11.644206569180286
Dancefit Studio,84084,40.6105956838837,-111.939040103869,0.0,0,dancestudio,0,16065.331851717714,31389.0,94214.0,3655.0,33.9,11.644206569180286
Puja's Yoga for Bliss & Wellness,84129,40.65536499,-111.96385956,0.0,0,yoga,0,15289.899915127484,38128.0,94051.0,4118.0,35.3,10.8004616030214
Fearless,84081,40.63817787680596,-111.97935402944796,0.0,0,healthtrainers,0,13521.905768829096,52168.0,114577.0,6475.0,31.2,12.41182333997853
Rethinking Fitness with Anne,84088,40.595154289651006,-111.96092497793492,0.0,0,nutritionists,0,14096.291897622246,38915.0,100532.0,5037.0,34.3,12.943595014775793
Vibe Yoga Sound Wellness,84065,40.52061,-111.93912,0.0,0,yoga,0,17837.0776580065,50284.0,122809.0,7706.0,35.0,15.32495425980431
Average Joe Yoga,84119,40.70009,-111.96085,0.0,0,yoga,0,20819.474758767494,50745.0,66616.0,3943.0,28.8,7.770223667356389
A2Z Training,84120,40.69702154971971,-111.98201755726512,0.0,0,healthtrainers,0,16922.039363644,50589.0,90847.0,3023.0,30.9,5.975607345470359
D&D fitness and nutrition,84088,40.595154289651006,-111.96092497793492,0.0,0,nutritionists,0,14096.291897622246,38915.0,100532.0,5037.0,34.3,12.943595014775793
World Martial Arts,84095,40.5606557,-111.9388049,0.0,0,martialarts,0,16267.032394206239,38240.0,123082.0,7350.0,39.0,19.22071129707113
Strength Through Knowledge,84119,40.6922416687012,-111.943504333496,0.0,0,healthtrainers,0,20819.474758767494,50745.0,66616.0,3943.0,28.8,7.770223667356389
Peak 45,84096,40.509225,-111.998973,0.0,0,pilates,0,14297.698914983728,71115.0,117800.0,11516.0,29.2,16.193489418547426
Legacy ATA Martial Arts,84129,40.65223,-111.96692,0.0,0,martialarts,0,15105.27158753473,38128.0,94051.0,4118.0,35.3,10.8004616030214
Tigers Tae Kwondo,84074,40.6013108,-112.2944014,0.0,0,taekwondo,0,14127.982948265728,57470.0,102313.0,5267.0,32.3,9.164781625195754
Snap Fitness,84084,40.610225,-112.004692,0.0,0,gyms,0,10570.851367329651,31389.0,94214.0,3655.0,33.9,11.644206569180286
Shaolin Arts,84095,40.5641482,-111.9388049,0.0,0,chinesemartialarts,0,16255.130959354714,38240.0,123082.0,7350.0,39.0,19.22071129707113
Alloy Personal Training,84095,40.54678,-112.00208,0.0,0,gyms,0,11781.327646486458,38240.0,123082.0,7350.0,39.0,19.22071129707113
Sweat Fitness Center,84074,40.5299339294434,-112.299339294434,0.0,0,gyms,0,16061.39939410675,57470.0,102313.0,5267.0,32.3,9.164781625195754
5 style martial arts,84084,40.63407,-111.98475,0.0,0,martialarts,0,12938.012151382763,31389.0,94214.0,3655.0,33.9,11.644206569180286
Heal Your Health,84095,40.55617403482263,-111.9617227,0.0,0,meditationcenters,0,14600.885006161898,38240.0,123082.0,7350.0,39.0,19.22071129707113
Salt City Fitness,84074,40.63556714666559,-112.30544583446056,0.0,0,healthtrainers,0,15736.919071423537,57470.0,102313.0,5267.0,32.3,9.164781625195754
Gracie Barra Riverton,84065,40.522610214681094,-111.9622017,0.0,0,brazilianjiujitsu,0,16007.998833047808,50284.0,122809.0,7706.0,35.0,15.32495425980431
Red Rock Firearms Training,,40.5234588584292,-111.940475591016,0.0,0,healthtrainers,0,17593.460432887605,,,,,
Beyond Fitness-Taylorsville,84118,40.6540870666504,-111.985427856445,0.0,0,gyms,0,13856.034014366569,41969.0,87457.0,2419.0,32.0,5.763778026638709
InnerWay Martial Arts,84074,40.5408173,-112.2982254,0.0,0,martialarts,0,15450.926815172417,57470.0,102313.0,5267.0,32.3,9.164781625195754
Smart Gym,84084,40.623064,-111.9389249,0.0,0,gyms,0,16252.00921317099,31389.0,94214.0,3655.0,33.9,11.644206569180286
West Valley City City of,84119,40.6988498568535,-111.926913186908,0.0,0,gyms,0,20658.87134460789,50745.0,66616.0,3943.0,28.8,7.770223667356389
Shaolin Arts South Jordan,84095,40.5641482,-111.9388049,0.0,0,chinesemartialarts,0,16255.130959354714,38240.0,123082.0,7350.0,39.0,19.22071129707113
Beyond Fitness,84119,40.69523,-111.97426,0.0,0,gyms,0,17255.815399433734,50745.0,66616.0,3943.0,28.8,7.770223667356389
Wasatch Tae Kwon DO,84095,40.567489,-111.939369,0.0,0,taekwondo,0,16158.152707774922,38240.0,123082.0,7350.0,39.0,19.22071129707113
Beyond Fitness,84088,40.6065268814564,-111.938695460558,0.0,0,gyms,0,16042.305713417361,38915.0,100532.0,5037.0,34.3,12.943595014775793
AAA Goaltending,84065,40.52029,-111.94661,0.0,0,healthtrainers,0,17284.66495907377,50284.0,122809.0,7706.0,35.0,15.32495425980431
Korean Tigers Taekwondo,84074,40.5553066,-112.2972956,0.0,0,taekwondo,0,14881.140681058487,57470.0,102313.0,5267.0,32.3,9.164781625195754
Karate For Kids,84118,40.65223,-111.96692,0.0,0,karate,0,15123.09656726499,41969.0,87457.0,2419.0,32.0,5.763778026638709
Beyond Fitness,84088,40.6079597,-111.9403076,0.0,0,gyms,0,15923.826193344777,38915.0,100532.0,5037.0,34.3,12.943595014775793
MyDojo,84129,40.6389465332031,-111.975395202637,0.0,0,karate,0,13848.673386943476,38128.0,94051.0,4118.0,35.3,10.8004616030214
Fly Dance Fitness,84095,40.54719,-111.93888,0.0,0,gyms,0,16680.633123942025,38240.0,123082.0,7350.0,39.0,19.22071129707113
Sport Moon,84074,40.75847626,-111.88814545,0.0,0,healthtrainers,0,15375.90612500411,57470.0,102313.0,5267.0,32.3,9.164781625195754
Leadership Taekwondo,84095,40.53964,-111.9996,0.0,0,taekwondo,0,12347.584955775885,38240.0,123082.0,7350.0,39.0,19.22071129707113
L A Weight Loss Center of Utah,84119,40.6968034,-111.9469066,0.0,0,healthtrainers,0,19204.504725113537,50745.0,66616.0,3943.0,28.8,7.770223667356389
Premier Martial Arts Hunter West Valley,84120,40.71002,-112.02372,0.0,0,karate,0,15742.319271087576,50589.0,90847.0,3023.0,30.9,5.975607345470359
Gracie Jiu-Jitsu - South Jordan,84009,40.54000057958648,-111.999827,0.0,0,brazilianjiujitsu,0,12289.930398943987,42091.0,130559.0,7838.0,33.2,18.621558052790384
White Lotus Oracle,84096,40.52131,-111.93167,0.0,0,reiki,0,17774.33189949726,71115.0,117800.0,11516.0,29.2,16.193489418547426
BODY20,84096,40.5087703606967,-111.99384480330504,0.0,0,healthtrainers,0,14659.939583944157,71115.0,117800.0,11516.0,29.2,16.193489418547426
Gracie Barra Herriman,84096,40.50826600681973,-112.0279822,0.0,0,brazilianjiujitsu,0,12608.568210248448,71115.0,117800.0,11516.0,29.2,16.193489418547426
Tee Box,84660,40.1341821,-111.63833049267168,0.0,0,golflessons,0,123641.29129268427,47004.0,98398.0,6675.0,27.4,14.200919070717385
Mountain West Grappling,84660,40.11132,-111.65504,0.0,0,martialarts,0,125531.86841889804,47004.0,98398.0,6675.0,27.4,14.200919070717385
Durable Human Gym,84663,40.18732948260734,-111.6102965,0.0,0,gyms,0,120350.05162364582,35889.0,88919.0,5339.0,28.1,14.876424531193402
Hygeia Fitness,84663,40.163776,-111.620558,0.0,0,nutritionists,0,121596.56372534214,35889.0,88919.0,5339.0,28.1,14.876424531193402
Haum Meditation,84060,40.66436,-111.49999,0.0,0,meditationcenters,0,115849.47758597224,8575.0,132412.0,2597.0,47.7,30.28571428571429
Evolve Health and Wellness Coaching,84092,40.581727,-111.622421,0.0,0,healthcoach,0,123334.68591802563,28162.0,153333.0,5821.0,42.3,20.669696754491866
Pilates Underground,84032,40.50735469765553,-111.4137811,0.0,0,pilates,0,104384.9641408629,25328.0,101365.0,4346.0,33.0,17.158875552747947
Motion UT Physcial Therapy & High Performance,84098,40.69660769924417,-111.46572891593866,0.0,0,physicaltherapy,0,114337.9708479535,20311.0,171151.0,5789.0,41.9,28.50179705578258
Baptiste Institute,84060,40.66255,-111.49789,0.0,0,yoga,0,115635.7131784372,8575.0,132412.0,2597.0,47.7,30.28571428571429
The Lethal Touch,82930,41.245277,-110.931755,0.0,0,martialarts,0,119127.46158637,,,,,
Evolved Women's Health,84663,40.183508613199926,-111.6256419,0.0,0,healthtrainers,0,121699.67544821618,35889.0,88919.0,5339.0,28.1,14.876424531193402
Park City Fit,84098,40.690157,-111.463579,0.0,0,gyms,0,113914.07410308279,20311.0,171151.0,5789.0,41.9,28.50179705578258
Park City Elevated,84098,40.70559,-111.54758,0.0,0,healthtrainers,0,121160.42178735413,20311.0,171151.0,5789.0,41.9,28.50179705578258
Bearfoot Yoga & Paddle,82930,41.25411,-110.9693401,0.0,0,yoga,0,121721.66684468868,,,,,
Peak Family Fitness,84036,40.6401899,-111.28031,0.0,0,gyms,0,97486.5480060569,8781.0,122679.0,1681.0,38.2,19.143605511900695
Resistance Pilates,84604,40.29888888963213,-111.65930257256365,0.0,0,pilates,0,123445.0000604915,43749.0,74522.0,6599.0,23.6,15.083773343390705
Bottom’s Up Yoga Studio,84660,40.11144462973508,-111.6543824364044,0.0,0,yoga,0,125461.33163670775,47004.0,98398.0,6675.0,27.4,14.200919070717385
Fitness World,84501,39.5994151,-110.8121087,0.0,0,gyms,0,96064.68106035974,13002.0,53256.0,1069.0,37.1,8.221812028918627
Tanea Delatore,84092,40.581727,-111.622421,0.0,0,healthtrainers,0,123334.68591802563,28162.0,153333.0,5821.0,42.3,20.669696754491866
FIN Treatment & Training,84663,40.17908,-111.61285,0.0,0,physicaltherapy,0,120711.89929540863,35889.0,88919.0,5339.0,28.1,14.876424531193402
Leantrition,84604,40.27449,-111.65207,0.0,0,healthtrainers,0,122955.34622615497,43749.0,74522.0,6599.0,23.6,15.083773343390705
Ryan's Remedies Personal Training,84664,40.14158,-111.57536,0.0,0,healthtrainers,0,118229.07010785754,12340.0,127860.0,2134.0,31.4,17.293354943273904
Max Fitness Studio,82930,41.2548476457596,-110.968591421843,0.0,0,gyms,0,121621.51591942862,,,,,
Wadoryu Karate School,84501,39.5989,-110.80589,0.0,0,martialarts,0,95811.14364476224,13002.0,53256.0,1069.0,37.1,8.221812028918627
Coach Ryan's Massage Therapy and Personal Training,84060,40.66269,-111.50105,0.0,0,massage_therapy,0,114845.20317633169,8575.0,132412.0,2597.0,47.7,30.28571428571429
Top Gunz Fitness,84066,40.2832826,-110.0108564,0.0,0,gyms,0,56911.92981941174,14626.0,75383.0,991.0,32.8,6.7756050868316695
Vernal Martial Arts Center,84078,40.4544835,-109.5233294,0.0,0,martialarts,0,59369.98538136932,30669.0,71230.0,2365.0,32.0,7.711369787081418
Jrod Fitness,84060,40.64385,-111.49433,0.0,0,healthtrainers,0,114845.20317633169,8575.0,132412.0,2597.0,47.7,30.28571428571429
Every Body Yoga Studio,84663,40.162592,-111.611067,0.0,0,yoga,0,120822.56793919238,35889.0,88919.0,5339.0,28.1,14.876424531193402
DynoFit,82930,41.2721825,-110.9580994,0.0,0,gyms,0,122832.53188975494,,,,,
White Lion Martial Arts & Fitness,84032,40.509674,-111.412659,0.0,0,theater,0,104340.19779529565,25328.0,101365.0,4346.0,33.0,17.158875552747947
Joies Yoga,84060,40.6486358642578,-111.512008666992,0.0,0,yoga,0,114845.20317633169,8575.0,132412.0,2597.0,47.7,30.28571428571429
Paul Tom's Academy of Brazilian Jiu Jitsu,84660,40.123191,-111.635421,0.0,0,martialarts,0,123625.0499656008,47004.0,98398.0,6675.0,27.4,14.200919070717385
Push It Gym,84663,40.183223,-111.626983,0.0,0,healthtrainers,0,121830.26747770308,35889.0,88919.0,5339.0,28.1,14.876424531193402
Studio Physiques the Pilates Method,84604,40.3015899658203,-111.657707214355,0.0,0,gyms,0,123308.44808089225,43749.0,74522.0,6599.0,23.6,15.083773343390705
Wellness for Wanderers,84078,40.45708084106445,-109.53361511230467,0.0,0,yoga,0,58942.922493758306,30669.0,71230.0,2365.0,32.0,7.711369787081418
Team Crezio Utah,84663,40.151208,-111.60976,0.0,0,brazilianjiujitsu,0,120916.98140573925,35889.0,88919.0,5339.0,28.1,14.876424531193402
Savage barbell club,84078,40.45448,-109.52794,0.0,0,gyms,0,58966.114109115195,30669.0,71230.0,2365.0,32.0,7.711369787081418
The Studio,84032,40.50837307575077,-111.4118232,0.0,0,barreclasses,0,104243.4636324393,25328.0,101365.0,4346.0,33.0,17.158875552747947
The EMP Fitness,82930,41.2665748596191,-110.96915435791,0.0,0,healthtrainers,0,122682.04638018897,,,,,
Grace Mauzy Wellness Consulting,84098,40.7136192321777,-111.485176086426,0.0,0,healthtrainers,0,116545.55910673102,20311.0,171151.0,5789.0,41.9,28.50179705578258
Lindsay Dougal Doula,84663,40.1622505187988,-111.607063293457,0.0,0,doulas,0,120748.25487290909,35889.0,88919.0,5339.0,28.1,14.876424531193402
White Tiger Taekwondo,84078,40.450235,-109.5510856,0.0,0,martialarts,0,56967.34924646708,30669.0,71230.0,2365.0,32.0,7.711369787081418
The Core Pilates and Yoga studio,84660,40.12618,-111.63991,0.0,0,pilates,0,123958.11039238851,47004.0,98398.0,6675.0,27.4,14.200919070717385
White Mountain Yoga,82901,41.364864864430224,-109.00246768343688,0.0,0,yoga,0,153427.70253261752,,,,,
Oak + Willow Yoga and Wellness Studio,84036,40.678627,-111.434539,0.0,0,yoga,0,111154.8833824336,8781.0,122679.0,1681.0,38.2,19.143605511900695
Yoga with Randi Jo,,40.64387,-111.49432,0.0,0,yoga,0,115066.4668011916,,,,,
Mile High Karate,84660,40.1208578,-111.6392699,0.0,0,karate,0,124081.75636173118,47004.0,98398.0,6675.0,27.4,14.200919070717385
Canyon Springs Health & Fitness Center,84604,40.27472,-111.65208,0.0,0,gyms,0,122957.13120945089,43749.0,74522.0,6599.0,23.6,15.083773343390705
Fit Stop,84032,40.488712310791,-111.40633392334,0.0,0,healthtrainers,0,103446.34137473267,25328.0,101365.0,4346.0,33.0,17.158875552747947
Bluth Tyler Physical Therapist,84032,40.488712310791,-111.40633392334,0.0,0,healthtrainers,0,103446.34137473267,25328.0,101365.0,4346.0,33.0,17.158875552747947
Mattsson Rolayne Physical Therapist,84032,40.488712310791,-111.40633392334,0.0,0,healthtrainers,0,103446.34137473267,25328.0,101365.0,4346.0,33.0,17.158875552747947
Springville Martial Arts,84664,40.1202785968781,-111.562821418047,0.0,0,martialarts,0,117534.5514657961,12340.0,127860.0,2134.0,31.4,17.293354943273904
Giles Kendra Massage Therapist,84032,40.488712310791,-111.40633392334,0.0,0,healthtrainers,0,103446.34137473267,25328.0,101365.0,4346.0,33.0,17.158875552747947
Spirit of Wellness,84060,40.663356,-111.495117,0.0,0,healthtrainers,0,115437.61323159894,8575.0,132412.0,2597.0,47.7,30.28571428571429
It's Yoga Utah,84604,40.2992401123047,-111.658462524414,0.0,0,yoga,0,123447.64661637504,43749.0,74522.0,6599.0,23.6,15.083773343390705
Andy Houston,84060,40.6622772216797,-111.502082824707,0.0,0,healthtrainers,0,114845.20317633169,8575.0,132412.0,2597.0,47.7,30.28571428571429
Beyond Fitness,84606,40.24009,-111.64295,0.0,0,gyms,0,122380.1964099977,35931.0,52110.0,4057.0,23.2,11.291085692020818
Vernal Personal Training,84078,40.4557156562805,-109.531564414501,0.0,0,healthtrainers,0,58719.91772174711,30669.0,71230.0,2365.0,32.0,7.711369787081418
Duke Steven Occupational Therapist,84032,40.488712310791,-111.40633392334,0.0,0,physicaltherapy,0,103446.34137473267,25328.0,101365.0,4346.0,33.0,17.158875552747947
Wasatch Family Fitness,84098,40.7477794,-111.578434,0.0,0,healthtrainers,0,125247.70573180662,20311.0,171151.0,5789.0,41.9,28.50179705578258
Nutha One,84663,40.16144,-111.610274,0.0,0,healthtrainers,0,120780.2234342615,35889.0,88919.0,5339.0,28.1,14.876424531193402
Adaptive Bodybuilding Team,84660,40.08792,-111.60241,0.0,0,healthtrainers,0,121696.9613408093,47004.0,98398.0,6675.0,27.4,14.200919070717385
Park City Dance Acadamy of Performing Arts,84098,40.7254099,-111.54275,0.0,0,martialarts,0,121580.63233212141,20311.0,171151.0,5789.0,41.9,28.50179705578258
Park City Dance,84060,40.72651,-111.53723,0.0,0,martialarts,0,120899.62706239517,8575.0,132412.0,2597.0,47.7,30.28571428571429
Wado Ryu Karate School,84501,39.598901,-110.805887,0.0,0,karate,0,95811.14364476224,13002.0,53256.0,1069.0,37.1,8.221812028918627
Evolutionary Martial Arts,84627,39.3685148348516,-111.5863058,0.0,0,martialarts,0,158986.91730274068,6151.0,78269.0,672.0,22.0,10.925052836937084
Prana Yoga and Wellness Center,84095,40.54471,-111.92289,0.0,0,yoga,0,8616.427313603828,38240.0,123082.0,7350.0,39.0,19.22071129707113
Always the Alpha,84095,40.56151,-111.92266,0.0,0,healthtrainers,0,8528.561711299644,38240.0,123082.0,7350.0,39.0,19.22071129707113
K-Taekwondo,84009,40.53906337526994,-112.02265607866389,0.0,0,taekwondo,0,2035.91078592442,42091.0,130559.0,7838.0,33.2,18.621558052790384
Real Hot Yoga Herriman,84096,40.5244625,-112.0253603,0.0,0,yoga,0,3667.9474213981853,71115.0,117800.0,11516.0,29.2,16.193489418547426
Infusion Yoga & Pilates,84010,40.8838857,-111.8871721,4.8,14,yoga,0,2961.8288844020167,46666.0,102038.0,8801.0,32.4,18.85955513650195
EōS Fitness,84010,40.863221,-111.893594,3.7,50,gyms,0,2725.3798844265407,46666.0,102038.0,8801.0,32.4,18.85955513650195
Orangetheory Fitness,84010,40.883925,-111.882582,4.3,18,healthtrainers,0,2704.7866047765647,46666.0,102038.0,8801.0,32.4,18.85955513650195
Jeon's World Martial Arts,84054,40.8515893,-111.9118372,4.5,16,karate,0,4521.510396156969,22201.0,107889.0,3693.0,32.1,16.634385838475744
Skills Fitness,84010,40.9050604937727,-111.88005825607648,3.8,12,gyms,0,4647.549920322534,46666.0,102038.0,8801.0,32.4,18.85955513650195
South Davis Recreation Center,84010,40.8953397,-111.883583,3.4,49,gyms,0,3784.975898738336,46666.0,102038.0,8801.0,32.4,18.85955513650195
Unite Fitness Retreat,84101,40.766872,-111.901104,4.8,64,weightlosscenters,0,11486.918278755169,8329.0,70391.0,2053.0,33.3,24.64881738504022
Anytime Fitness,84010,40.8820357105534,-111.893511070592,4.0,4,gyms,0,3228.4489043659105,46666.0,102038.0,8801.0,32.4,18.85955513650195
Salt Lake Power Yoga,84111,40.762481,-111.88385,4.7,105,yoga,0,11632.595645153275,12446.0,57188.0,3336.0,32.5,26.803792383094972
PEAK 45,84111,40.76282250102699,-111.88405327531088,4.7,52,pilates,0,11598.140429583153,12446.0,57188.0,3336.0,32.5,26.803792383094972
Salt Lake City Crossfit,84101,40.755946,-111.907846,4.7,50,intervaltraininggyms,0,12815.45174620334,8329.0,70391.0,2053.0,33.3,24.64881738504022
TruMotion Martial Arts - Bountiful,84010,40.88333,-111.886783,5.0,3,selfdefenseclasses,0,2895.8477006089465,46666.0,102038.0,8801.0,32.4,18.85955513650195
Glow,84104,40.7500965996555,-111.9123272,4.9,11,saunas,0,13550.906081282006,24057.0,61326.0,1946.0,34.1,8.089121669368584
Utah Self Defense and Fitness,84010,40.8775884,-111.8908978,5.0,2,martialarts,0,2808.5172364995815,46666.0,102038.0,8801.0,32.4,18.85955513650195
Lila Studio,84106,40.725663,-111.863229,4.7,29,yoga,0,15573.352343658962,33791.0,94452.0,8406.0,35.7,24.876446391050873
Bouldering Project - The Granary,84101,40.75495,-111.90287,4.7,17,rock_climbing,0,12803.608034345238,8329.0,70391.0,2053.0,33.3,24.64881738504022
Mcycle,84101,40.760108,-111.901675,4.9,44,cyclingclasses,0,12219.276883020722,8329.0,70391.0,2053.0,33.3,24.64881738504022
VASA Fitness - Bountiful,84010,40.875152,-111.886589,2.3,110,gyms,0,2362.4150639759328,46666.0,102038.0,8801.0,32.4,18.85955513650195
Fight City,84115,40.71889003197076,-111.89435387446736,5.0,7,boxing,0,16559.47480724513,28411.0,61505.0,4155.0,33.9,14.62461722572243
CorePower Yoga - Foothill,84108,40.73873495543427,-111.82538895826644,4.6,42,yoga,0,14441.114309952696,21951.0,120469.0,5217.0,34.0,23.766570999043324
Big John's Pro Gym,84010,40.87834,-111.89088,5.0,1,gyms,0,2845.406081684037,46666.0,102038.0,8801.0,32.4,18.85955513650195
Maven Strong,84111,40.75012657565747,-111.88660744306968,5.0,10,pilates,0,13026.042081055324,12446.0,57188.0,3336.0,32.5,26.803792383094972
Mushin Self Defense,84054,40.84959,-111.92941,5.0,3,selfdefenseclasses,0,5970.260159395956,22201.0,107889.0,3693.0,32.1,16.634385838475744
Bikram Yoga Salt Lake City,84152,40.72844,-111.85982,4.4,49,yoga,0,15272.380311509269,,,,,
Rebel House,84106,40.722452744906654,-111.87144754070454,4.5,20,cyclingclasses,0,15951.92289043929,33791.0,94452.0,8406.0,35.7,24.876446391050873
The Front Climbing Club - Salt Lake City,84115,40.73783246834809,-111.90276493230492,4.0,60,climbing,0,14639.096497944078,28411.0,61505.0,4155.0,33.9,14.62461722572243
Legends Boxing - Bountiful,84010,40.883543,-111.883594,4.5,2,boxing,0,2722.608073524891,46666.0,102038.0,8801.0,32.4,18.85955513650195
Seek Studio,84105,40.7313623286872,-111.8599823,4.8,16,yoga,0,14939.361768897626,22963.0,94145.0,5510.0,35.6,23.995122588511954
Sri Shala,84101,40.7602897,-111.9038555,5.0,7,ayurveda,0,12254.23922062655,8329.0,70391.0,2053.0,33.3,24.64881738504022
Blonde Runner Health,84010,40.8709748872845,-111.861873198298,2.0,1,healthtrainers,0,586.5601819518383,46666.0,102038.0,8801.0,32.4,18.85955513650195
CorePower Yoga - Trolley Square,84102,40.75767978988558,-111.87355664397144,4.3,41,yoga,0,12055.855512054728,19145.0,50040.0,3812.0,29.6,19.911203969704882
Combat Arts Strength & Conditioning,84111,40.76099,-111.88279,5.0,7,brazilianjiujitsu,0,11776.294744204768,12446.0,57188.0,3336.0,32.5,26.803792383094972
Club Pilates,84010,40.88451504547355,-111.89333841964338,3.7,7,pilates,0,3402.069479063195,46666.0,102038.0,8801.0,32.4,18.85955513650195
Wasatch Ayurveda and Yoga,84105,40.7273429,-111.8678975,5.0,6,yoga,0,15395.471258943313,22963.0,94145.0,5510.0,35.6,23.995122588511954
Centered City Yoga,84105,40.74961274056896,-111.86470183754794,4.2,95,yoga,0,12912.476029380461,22963.0,94145.0,5510.0,35.6,23.995122588511954
Total Body Pilates,84108,40.7262374,-111.82475,4.1,22,pilates,0,15812.949073587288,21951.0,120469.0,5217.0,34.0,23.766570999043324
CHVRCH Cycle,84111,40.750004653748206,-111.8949824,5.0,7,cyclingclasses,0,13172.387454710455,12446.0,57188.0,3336.0,32.5,26.803792383094972
barre3,84102,40.757453,-111.87189563988112,5.0,7,barreclasses,0,12069.967730366672,19145.0,50040.0,3812.0,29.6,19.911203969704882
Bernales Institute of Martial Arts,84115,40.72178,-111.887183,5.0,9,martialarts,0,16150.6589641031,28411.0,61505.0,4155.0,33.9,14.62461722572243
TITLE Boxing Club,84106,40.725845,-111.869864,4.1,18,boxing,0,15568.606347254208,33791.0,94452.0,8406.0,35.7,24.876446391050873
X365 Fitness,84106,40.71368338878701,-111.8559969,4.9,11,gyms,0,16910.841400611436,33791.0,94452.0,8406.0,35.7,24.876446391050873
F45 Training Sugarhouse,84105,40.726107588206,-111.847806,4.6,17,intervaltraininggyms,0,15565.414944668573,22963.0,94145.0,5510.0,35.6,23.995122588511954
Alliance Jiu Jitsu,84010,40.883451,-111.894078,5.0,1,brazilianjiujitsu,0,3387.0445472807096,46666.0,102038.0,8801.0,32.4,18.85955513650195
Salt Lake Lagree,84108,40.74113936595315,-111.83105452727987,4.6,16,pilates,0,14085.533519984376,21951.0,120469.0,5217.0,34.0,23.766570999043324
The Point Pilates,84106,40.712864840983656,-111.86527833224208,4.9,12,pilates,0,16998.80057231293,33791.0,94452.0,8406.0,35.7,24.876446391050873
Orangetheory Fitness,84102,40.75745,-111.87357,4.0,41,bootcamps,0,12081.41050783019,19145.0,50040.0,3812.0,29.6,19.911203969704882
YogaSix Sugarhouse,84106,40.72392,-111.85918,4.7,21,yoga,0,15768.495302986508,33791.0,94452.0,8406.0,35.7,24.876446391050873
Lift at Station Park,84025,40.98377585458432,-111.90613620328122,4.3,8,gyms,0,13655.174841231632,25055.0,120123.0,4364.0,31.8,17.417681101576534
Phillips Retreat,84010,40.87097488728452,-111.8618731982976,0.0,0,psychic_astrology,0,586.5601819517301,46666.0,102038.0,8801.0,32.4,18.85955513650195
The Gym,84101,40.7655,-111.893465,2.9,93,gyms,0,11466.164725061923,8329.0,70391.0,2053.0,33.3,24.64881738504022
F45 Training Bountiful,84010,40.88403,-111.88638,0.0,0,healthtrainers,0,2927.712934459197,46666.0,102038.0,8801.0,32.4,18.85955513650195
Swan Pilates,84010,40.86775109578797,-111.8672481483226,0.0,0,pilates,0,540.065269748746,46666.0,102038.0,8801.0,32.4,18.85955513650195
JCC of Salt Lake City,84113,40.7717950340073,-111.834871095263,3.8,14,gyms,0,10411.756702808627,,,,,
Salt Lake Tennis & Health Club,84106,40.717603,-111.840137,3.7,7,tennis,0,16566.010221269764,33791.0,94452.0,8406.0,35.7,24.876446391050873
F45 Training Farmington,84025,40.9855816788294,-111.910238163856,5.0,5,healthtrainers,0,13929.688159897038,25055.0,120123.0,4364.0,31.8,17.417681101576534
EōS Fitness,84102,40.757975,-111.87047,3.3,61,gyms,0,12017.423304030051,19145.0,50040.0,3812.0,29.6,19.911203969704882
Arrichion Hot Yoga Salt Lake City,84106,40.724852043136934,-111.87239918465907,4.2,9,yoga,0,15690.027890647105,33791.0,94452.0,8406.0,35.7,24.876446391050873
PhysioFit Rx,84108,40.742017,-111.831254,5.0,3,physicaltherapy,0,13993.46359735307,21951.0,120469.0,5217.0,34.0,23.766570999043324
Pinnacle Performance,84105,40.73665,-111.85942,4.0,10,healthtrainers,0,14349.500779685732,22963.0,94145.0,5510.0,35.6,23.995122588511954
"HOTWORX - North Salt Lake, UT - Redwood Rd",84054,40.85351,-111.93033,5.0,1,yoga,0,5951.923556899674,22201.0,107889.0,3693.0,32.1,16.634385838475744
